[{"comercio_razon_social":"CARSA SA","sucursales_nombre":"130 - CIUDADELA","sucursales_latitud":"-34.6182294","sucursales_longitud":"-58.5442501","incremento_pct":"7.59"},{"comercio_razon_social":"CARSA SA","sucursales_nombre":"132 - ADOLFO SOURDEAUX","sucursales_latitud":"-34.504514","sucursales_longitud":"-58.6671114","incremento_pct":"8.90"},{"comercio_razon_social":"CARSA SA","sucursales_nombre":"134 - BELLA VISTA","sucursales_latitud":"-34.5652775","sucursales_longitud":"-58.6842989","incremento_pct":"3.95"},{"comercio_razon_social":"CARSA SA","sucursales_nombre":"138 - TIGRE","sucursales_latitud":"-34.4578272","sucursales_longitud":"-58.6298689","incremento_pct":"7.49"},{"comercio_razon_social":"CARSA SA","sucursales_nombre":"14 - SAN MARTIN","sucursales_latitud":"-34.5738643","sucursales_longitud":"-58.5326316","incremento_pct":"18.63"},{"comercio_razon_social":"CARSA SA","sucursales_nombre":"141 - CLAYPOLE","sucursales_latitud":"-34.8276381","sucursales_longitud":"-58.38449","incremento_pct":"5.01"},{"comercio_razon_social":"CARSA SA","sucursales_nombre":"172 - MAR DEL PLATA","sucursales_latitud":"-38.0419852","sucursales_longitud":"-57.5476181","incremento_pct":"9.65"},{"comercio_razon_social":"CARSA SA","sucursales_nombre":"24 DE SEPT. 1500","sucursales_latitud":"-31.412863","sucursales_longitud":"-64.163689","incremento_pct":"5.78"},{"comercio_razon_social":"CARSA SA","sucursales_nombre":"253 - NAVARRO","sucursales_latitud":"-35.005151","sucursales_longitud":"-59.278074","incremento_pct":"5.15"},{"comercio_razon_social":"CARSA SA","sucursales_nombre":"272 - PALERMO","sucursales_latitud":"-34.5880694","sucursales_longitud":"-58.4205839","incremento_pct":"8.36"},{"comercio_razon_social":"CARSA SA","sucursales_nombre":"275 - GENERAL MADARIAGA","sucursales_latitud":"-37.003439","sucursales_longitud":"-57.136081","incremento_pct":"2.98"},{"comercio_razon_social":"CARSA SA","sucursales_nombre":"280 - SAN NICOLAS","sucursales_latitud":"-33.3346028","sucursales_longitud":"-60.2188972","incremento_pct":"4.90"},{"comercio_razon_social":"CARSA SA","sucursales_nombre":"3 - BALVANERA","sucursales_latitud":"-34.6173202","sucursales_longitud":"-58.3916913","incremento_pct":"15.97"},{"comercio_razon_social":"CARSA SA","sucursales_nombre":"301 - RECOLETA","sucursales_latitud":"-34.5970782","sucursales_longitud":"-58.3877718","incremento_pct":"5.72"},{"comercio_razon_social":"CARSA SA","sucursales_nombre":"303 - BALVANERA","sucursales_latitud":"-34.6123916","sucursales_longitud":"-58.3947104","incremento_pct":"4.84"},{"comercio_razon_social":"CARSA SA","sucursales_nombre":"308 - VILLA GENERAL MITRE","sucursales_latitud":"-34.6182412","sucursales_longitud":"-58.4699422","incremento_pct":"6.52"},{"comercio_razon_social":"CARSA SA","sucursales_nombre":"323 - VICTORIA","sucursales_latitud":"-32.6220245","sucursales_longitud":"-60.1570702","incremento_pct":"5.52"},{"comercio_razon_social":"CARSA SA","sucursales_nombre":"327 - VILLA ELISA","sucursales_latitud":"-32.160073","sucursales_longitud":"-58.402913","incremento_pct":"4.38"},{"comercio_razon_social":"CARSA SA","sucursales_nombre":"354 - PARQUE CHAS","sucursales_latitud":"-34.580357","sucursales_longitud":"-58.472993","incremento_pct":"5.53"},{"comercio_razon_social":"CARSA SA","sucursales_nombre":"377 - VILLA SOLDATI","sucursales_latitud":"-34.6594782","sucursales_longitud":"-58.4286401","incremento_pct":"3.79"},{"comercio_razon_social":"CARSA SA","sucursales_nombre":"384 - BALVANERA","sucursales_latitud":"-34.6036515","sucursales_longitud":"-58.405234","incremento_pct":"6.40"},{"comercio_razon_social":"CARSA SA","sucursales_nombre":"387 - PARQUE AVELLANEDA","sucursales_latitud":"-34.6530744","sucursales_longitud":"-58.4814134","incremento_pct":"5.08"},{"comercio_razon_social":"CARSA SA","sucursales_nombre":"391 - VILLA SANTA RITA","sucursales_latitud":"-34.6182691","sucursales_longitud":"-58.476016","incremento_pct":"6.09"},{"comercio_razon_social":"CARSA SA","sucursales_nombre":"4 - PARQUE PATRICIOS","sucursales_latitud":"-34.6369605","sucursales_longitud":"-58.4045551","incremento_pct":"10.75"},{"comercio_razon_social":"CARSA SA","sucursales_nombre":"407 - NÚÑEZ","sucursales_latitud":"-34.5637332","sucursales_longitud":"-58.4567305","incremento_pct":"0.00"},{"comercio_razon_social":"CARSA SA","sucursales_nombre":"455 - FLORES","sucursales_latitud":"-34.6016761","sucursales_longitud":"-58.3971054","incremento_pct":"0.00"},{"comercio_razon_social":"CARSA SA","sucursales_nombre":"465 - RETIRO","sucursales_latitud":"-34.6008689","sucursales_longitud":"-58.3731891","incremento_pct":"6.38"},{"comercio_razon_social":"CARSA SA","sucursales_nombre":"470 - MONSERRAT","sucursales_latitud":"-34.6081269","sucursales_longitud":"-58.3760198","incremento_pct":"4.46"},{"comercio_razon_social":"CARSA SA","sucursales_nombre":"491 - CABALLITO","sucursales_latitud":"-34.6244356","sucursales_longitud":"-58.4349162","incremento_pct":"5.24"},{"comercio_razon_social":"CARSA SA","sucursales_nombre":"5 - SAN CRISTÓBAL","sucursales_latitud":"-34.6236734","sucursales_longitud":"-58.4014697","incremento_pct":"8.59"},{"comercio_razon_social":"CARSA SA","sucursales_nombre":"534 - PARANA-ENTRE RIOS","sucursales_latitud":"-31.752516","sucursales_longitud":"-60.496366","incremento_pct":"9.74"},{"comercio_razon_social":"CARSA SA","sucursales_nombre":"569 - MERLO","sucursales_latitud":"-34.7212","sucursales_longitud":"-58.790951","incremento_pct":"13.66"},{"comercio_razon_social":"CARSA SA","sucursales_nombre":"65 - VILLA URQUIZA","sucursales_latitud":"-34.5795557","sucursales_longitud":"-58.4770438","incremento_pct":"5.77"},{"comercio_razon_social":"CARSA SA","sucursales_nombre":"7 - ALMAGRO","sucursales_latitud":"-34.6024774","sucursales_longitud":"-58.4281829","incremento_pct":"8.47"},{"comercio_razon_social":"CARSA SA","sucursales_nombre":"767 - BALVANERA","sucursales_latitud":"-34.60401","sucursales_longitud":"-58.407322","incremento_pct":"5.78"},{"comercio_razon_social":"CARSA SA","sucursales_nombre":"768 - ALMAGRO","sucursales_latitud":"-34.605676","sucursales_longitud":"-58.423342","incremento_pct":"10.03"},{"comercio_razon_social":"CARSA SA","sucursales_nombre":"769 - ALMAGRO","sucursales_latitud":"-34.609831","sucursales_longitud":"-58.422462","incremento_pct":"4.03"},{"comercio_razon_social":"CARSA SA","sucursales_nombre":"771 - SAAVEDRA","sucursales_latitud":"-34.555101","sucursales_longitud":"-58.479894","incremento_pct":"9.00"},{"comercio_razon_social":"CARSA SA","sucursales_nombre":"772 - PARQUE CHACABUCO","sucursales_latitud":"-34.642459","sucursales_longitud":"-58.438805","incremento_pct":"6.67"},{"comercio_razon_social":"CARSA SA","sucursales_nombre":"773 - VILLA DEVOTO","sucursales_latitud":"-34.615795","sucursales_longitud":"-58.522317","incremento_pct":"8.01"},{"comercio_razon_social":"CARSA SA","sucursales_nombre":"8 - VÉLEZ SÁRSFIELD","sucursales_latitud":"-34.6355238","sucursales_longitud":"-58.4889911","incremento_pct":"4.05"},{"comercio_razon_social":"CARSA SA","sucursales_nombre":"80 - EZEIZA","sucursales_latitud":"-34.8519579","sucursales_longitud":"-58.5222721","incremento_pct":"10.14"},{"comercio_razon_social":"CARSA SA","sucursales_nombre":"91 - VILLA LURO","sucursales_latitud":"-34.6375385","sucursales_longitud":"-58.5001704","incremento_pct":"3.07"},{"comercio_razon_social":"CARSA SA","sucursales_nombre":"ABASTO ","sucursales_latitud":"-34.6027526","sucursales_longitud":"-58.4114132","incremento_pct":"3.07"},{"comercio_razon_social":"CARSA SA","sucursales_nombre":"ACA DON TORCUATO","sucursales_latitud":"-34.50200","sucursales_longitud":"-58.64564","incremento_pct":"4.90"},{"comercio_razon_social":"CARSA SA","sucursales_nombre":"ACA VELEZ SARSFIELD","sucursales_latitud":"-34.64512","sucursales_longitud":"-58.38923","incremento_pct":"10.90"},{"comercio_razon_social":"CARSA SA","sucursales_nombre":"ACASSUSO","sucursales_latitud":"-34.47436","sucursales_longitud":"-58.50185","incremento_pct":"10.90"},{"comercio_razon_social":"CARSA SA","sucursales_nombre":"AUTOSERVICIO 2 R.GALLEGOS","sucursales_latitud":"-51.632190","sucursales_longitud":"-69.198120","incremento_pct":"8.48"},{"comercio_razon_social":"CARSA SA","sucursales_nombre":"AV.SAN MARTIN","sucursales_latitud":"-34.6048231","sucursales_longitud":"-58.4571361","incremento_pct":"10.90"},{"comercio_razon_social":"CARSA SA","sucursales_nombre":"Allen II","sucursales_latitud":"-38.98309546319121","sucursales_longitud":"-67.83118271836429","incremento_pct":"10.14"},{"comercio_razon_social":"CARSA SA","sucursales_nombre":"Almagro","sucursales_latitud":"-34.6033211","sucursales_longitud":"-58.4193429","incremento_pct":"10.90"},{"comercio_razon_social":"CARSA SA","sucursales_nombre":"America y Belgrano Tucuman","sucursales_latitud":"-26.8094","sucursales_longitud":"-65.2479","incremento_pct":"8.48"},{"comercio_razon_social":"CARSA SA","sucursales_nombre":"Apóstoles","sucursales_latitud":"-27.913034","sucursales_longitud":"-55.751704","incremento_pct":"8.36"},{"comercio_razon_social":"CARSA SA","sucursales_nombre":"Aristóbulo del Valle 1.","sucursales_latitud":"-27.095197","sucursales_longitud":"-54.892726","incremento_pct":"5.15"},{"comercio_razon_social":"CARSA SA","sucursales_nombre":"Av. H.Yrigoyen 2323","sucursales_latitud":"-34.684697","sucursales_longitud":"-58.386613","incremento_pct":"0.00"},{"comercio_razon_social":"CARSA SA","sucursales_nombre":"Av. Mitre 6328","sucursales_latitud":"-34.704182","sucursales_longitud":"-58.316933","incremento_pct":"6.38"},{"comercio_razon_social":"CARSA SA","sucursales_nombre":"Av. Pueyrredón 2464","sucursales_latitud":"-34.585915","sucursales_longitud":"-58.394398","incremento_pct":"5.72"},{"comercio_razon_social":"CARSA SA","sucursales_nombre":"BARILOCHE","sucursales_latitud":"-41.135450","sucursales_longitud":"-71.308740","incremento_pct":"4.05"},{"comercio_razon_social":"CARSA SA","sucursales_nombre":"BARILOCHE 3","sucursales_latitud":"-41.131390","sucursales_longitud":"-71.361240","incremento_pct":"10.75"},{"comercio_razon_social":"CARSA SA","sucursales_nombre":"BERNAL ","sucursales_latitud":"-34.719142","sucursales_longitud":"-58.2913273","incremento_pct":"7.59"},{"comercio_razon_social":"CARSA SA","sucursales_nombre":"Barracas","sucursales_latitud":"-34.639341","sucursales_longitud":"-58.374389","incremento_pct":"5.24"},{"comercio_razon_social":"CARSA SA","sucursales_nombre":"Barranqueras","sucursales_latitud":"-27.482772","sucursales_longitud":"-58.938003","incremento_pct":"7.49"},{"comercio_razon_social":"CARSA SA","sucursales_nombre":"Barrio Norte","sucursales_latitud":"-34.5947432","sucursales_longitud":"-58.4011222","incremento_pct":"8.59"},{"comercio_razon_social":"CARSA SA","sucursales_nombre":"Belgrano 1","sucursales_latitud":"-34.5610986","sucursales_longitud":"-58.4575502","incremento_pct":"10.75"},{"comercio_razon_social":"CARSA SA","sucursales_nombre":"Bella Vista","sucursales_latitud":"-28.510183","sucursales_longitud":"-59.044039","incremento_pct":"9.71"},{"comercio_razon_social":"CARSA SA","sucursales_nombre":"Bicentenario                                                ","sucursales_latitud":"-40.798007","sucursales_longitud":"-62.969036","incremento_pct":"10.90"},{"comercio_razon_social":"CARSA SA","sucursales_nombre":"Bolivar","sucursales_latitud":"-36.23153688864939","sucursales_longitud":"-61.11475968369632","incremento_pct":"3.07"},{"comercio_razon_social":"CARSA SA","sucursales_nombre":"Bragado","sucursales_latitud":"-35.1171800","sucursales_longitud":"-60.4862140","incremento_pct":"10.75"},{"comercio_razon_social":"CARSA SA","sucursales_nombre":"CABILDO","sucursales_latitud":"-34.54595","sucursales_longitud":"-58.47089","incremento_pct":"8.47"},{"comercio_razon_social":"CARSA SA","sucursales_nombre":"CIPOLLETTI","sucursales_latitud":"-38.933690","sucursales_longitud":"-68.001030","incremento_pct":"8.47"},{"comercio_razon_social":"CARSA SA","sucursales_nombre":"CR - KM8","sucursales_latitud":"-45.794709810609426","sucursales_longitud":"-67.42194339817198","incremento_pct":"7.49"},{"comercio_razon_social":"CARSA SA","sucursales_nombre":"CR - Laprida","sucursales_latitud":"-45.829038137240005","sucursales_longitud":"-67.541284500811","incremento_pct":"5.01"},{"comercio_razon_social":"CARSA SA","sucursales_nombre":"Cabildo 2865","sucursales_latitud":"-34.555786","sucursales_longitud":"-58.462146","incremento_pct":"6.09"},{"comercio_razon_social":"CARSA SA","sucursales_nombre":"Camacua.","sucursales_latitud":"-34.6282","sucursales_longitud":"-58.4608","incremento_pct":"15.97"},{"comercio_razon_social":"CARSA SA","sucursales_nombre":"Castelli","sucursales_latitud":"-25.944700","sucursales_longitud":"-60.614214","incremento_pct":"4.38"},{"comercio_razon_social":"CARSA SA","sucursales_nombre":"Catamarca II","sucursales_latitud":"-28.472753","sucursales_longitud":"-65.778434","incremento_pct":"8.90"},{"comercio_razon_social":"CARSA SA","sucursales_nombre":"Catamarca Peatonal.","sucursales_latitud":"-28.4726","sucursales_longitud":"-65.7782","incremento_pct":"4.03"},{"comercio_razon_social":"CARSA SA","sucursales_nombre":"Chacabuco","sucursales_latitud":"-34.6438980","sucursales_longitud":"-60.4706700","incremento_pct":"4.05"},{"comercio_razon_social":"CARSA SA","sucursales_nombre":"Chaco","sucursales_latitud":"-27.4514458","sucursales_longitud":"-58.9894067","incremento_pct":"10.14"},{"comercio_razon_social":"CARSA SA","sucursales_nombre":"Charata 2","sucursales_latitud":"-27.217363","sucursales_longitud":"-61.191368","incremento_pct":"5.79"},{"comercio_razon_social":"CARSA SA","sucursales_nombre":"Chivilcoy","sucursales_latitud":"-34.8949760","sucursales_longitud":"-60.0186460","incremento_pct":"8.47"},{"comercio_razon_social":"CARSA SA","sucursales_nombre":"Chivilcoy","sucursales_latitud":"-34.8940","sucursales_longitud":"-60.0175","incremento_pct":"4.05"},{"comercio_razon_social":"CARSA SA","sucursales_nombre":"Chos Malal II","sucursales_latitud":"-37.375996247434266","sucursales_longitud":"-70.27250250874124","incremento_pct":"8.90"},{"comercio_razon_social":"CARSA SA","sucursales_nombre":"Cipolletti","sucursales_latitud":"-38.9398497","sucursales_longitud":"-67.9997146","incremento_pct":"5.77"},{"comercio_razon_social":"CARSA SA","sucursales_nombre":"Cipolletti","sucursales_latitud":"-38.9385300","sucursales_longitud":"-67.9995650","incremento_pct":"9.65"},{"comercio_razon_social":"CARSA SA","sucursales_nombre":"Cipolletti I","sucursales_latitud":"-38.93591736352952","sucursales_longitud":"-67.98749637770385","incremento_pct":"5.77"},{"comercio_razon_social":"CARSA SA","sucursales_nombre":"Ciudad de Nieva","sucursales_latitud":"-24.1872","sucursales_longitud":"-65.3204","incremento_pct":"5.79"},{"comercio_razon_social":"CARSA SA","sucursales_nombre":"Clorinda","sucursales_latitud":"-25.286920","sucursales_longitud":"-57.713237","incremento_pct":"3.95"},{"comercio_razon_social":"CARSA SA","sucursales_nombre":"Concordia II","sucursales_latitud":"-31.396866","sucursales_longitud":"-58.018603","incremento_pct":"7.49"},{"comercio_razon_social":"CARSA SA","sucursales_nombre":"Cordoba","sucursales_latitud":"-34.59550","sucursales_longitud":"-58.42720","incremento_pct":"18.63"},{"comercio_razon_social":"CARSA SA","sucursales_nombre":"Corrientes 1 - Junin","sucursales_latitud":"-27.467489","sucursales_longitud":"-58.836112","incremento_pct":"10.90"},{"comercio_razon_social":"CARSA SA","sucursales_nombre":"Corrientes 2 - Maipú","sucursales_latitud":"-27.476792","sucursales_longitud":"-58.830569","incremento_pct":"9.65"},{"comercio_razon_social":"CARSA SA","sucursales_nombre":"Corrientes 3 - Centenario","sucursales_latitud":"-27.472061","sucursales_longitud":"-58.807566","incremento_pct":"13.66"},{"comercio_razon_social":"CARSA SA","sucursales_nombre":"Curuzú Cuatiá","sucursales_latitud":"-29.790577","sucursales_longitud":"-58.054853","incremento_pct":"3.07"},{"comercio_razon_social":"CARSA SA","sucursales_nombre":"Del Libertador 1140","sucursales_latitud":"-34.585727","sucursales_longitud":"-58.388055","incremento_pct":"13.66"},{"comercio_razon_social":"CARSA SA","sucursales_nombre":"Directorio 4989","sucursales_latitud":"-34.650719","sucursales_longitud":"-58.490753","incremento_pct":"5.14"},{"comercio_razon_social":"CARSA SA","sucursales_nombre":"EL BOLSON","sucursales_latitud":"-41.962760","sucursales_longitud":"-71.535240","incremento_pct":"6.03"},{"comercio_razon_social":"CARSA SA","sucursales_nombre":"El Colorado","sucursales_latitud":"-26.305358","sucursales_longitud":"-59.371595","incremento_pct":"5.08"},{"comercio_razon_social":"CARSA SA","sucursales_nombre":"El Payador 5550","sucursales_latitud":"-34.588563","sucursales_longitud":"-58.573821","incremento_pct":"4.46"},{"comercio_razon_social":"CARSA SA","sucursales_nombre":"Eldorado","sucursales_latitud":"-26.408442","sucursales_longitud":"-54.604314","incremento_pct":"6.03"},{"comercio_razon_social":"CARSA SA","sucursales_nombre":"Esquina 1","sucursales_latitud":"-30.013737","sucursales_longitud":"-59.529291","incremento_pct":"5.14"},{"comercio_razon_social":"CARSA SA","sucursales_nombre":"FRENCH ","sucursales_latitud":"-34.5907212","sucursales_longitud":"-58.399403","incremento_pct":"10.14"},{"comercio_razon_social":"CARSA SA","sucursales_nombre":"Falucho","sucursales_latitud":"-38.0075428","sucursales_longitud":"-57.546432","incremento_pct":"4.05"},{"comercio_razon_social":"CARSA SA","sucursales_nombre":"Fco. Seguí 1519","sucursales_latitud":"-34.485221","sucursales_longitud":"-58.726521","incremento_pct":"16.23"},{"comercio_razon_social":"CARSA SA","sucursales_nombre":"Fontana","sucursales_latitud":"-27.417031","sucursales_longitud":"-59.037020","incremento_pct":"6.86"},{"comercio_razon_social":"CARSA SA","sucursales_nombre":"Formosa","sucursales_latitud":"-26.181410","sucursales_longitud":"-58.166895","incremento_pct":"5.01"},{"comercio_razon_social":"CARSA SA","sucursales_nombre":"Formosa 1 - Saavedra","sucursales_latitud":"-26.180654","sucursales_longitud":"-58.167847","incremento_pct":"10.75"},{"comercio_razon_social":"CARSA SA","sucursales_nombre":"Formosa 2 - 9 de Julio","sucursales_latitud":"-26.183660","sucursales_longitud":"-58.174720","incremento_pct":"5.53"},{"comercio_razon_social":"CARSA SA","sucursales_nombre":"Garay","sucursales_latitud":"-34.62693","sucursales_longitud":"-58.38303","incremento_pct":"6.03"},{"comercio_razon_social":"CARSA SA","sucursales_nombre":"General San Martin","sucursales_latitud":"-26.534758","sucursales_longitud":"-59.339332","incremento_pct":"4.90"},{"comercio_razon_social":"CARSA SA","sucursales_nombre":"Gobernador Virasoro","sucursales_latitud":"-28.053670","sucursales_longitud":"-56.017050","incremento_pct":"6.09"},{"comercio_razon_social":"CARSA SA","sucursales_nombre":"Goya","sucursales_latitud":"-29.143359","sucursales_longitud":"-59.262752","incremento_pct":"8.48"},{"comercio_razon_social":"CARSA SA","sucursales_nombre":"Gualeguaychu","sucursales_latitud":"-33.0095327","sucursales_longitud":"-64.1854750","incremento_pct":"3.95"},{"comercio_razon_social":"CARSA SA","sucursales_nombre":"H.YRIGOYEN ","sucursales_latitud":"-34.614634","sucursales_longitud":"-58.420517","incremento_pct":"6.03"},{"comercio_razon_social":"CARSA SA","sucursales_nombre":"INDEPENDENCIA 855","sucursales_latitud":"-31.422938","sucursales_longitud":"-64.186857","incremento_pct":"10.03"},{"comercio_razon_social":"CARSA SA","sucursales_nombre":"Iguazú","sucursales_latitud":"-25.602360","sucursales_longitud":"-54.572910","incremento_pct":"8.48"},{"comercio_razon_social":"CARSA SA","sucursales_nombre":"Ituzaingo 1.","sucursales_latitud":"-27.586037","sucursales_longitud":"-56.688787","incremento_pct":"5.24"},{"comercio_razon_social":"CARSA SA","sucursales_nombre":"J. M. de Rosas 2553","sucursales_latitud":"-34.531045","sucursales_longitud":"-58.575409","incremento_pct":"6.33"},{"comercio_razon_social":"CARSA SA","sucursales_nombre":"JUAN DE GARAY ","sucursales_latitud":"-34.628905","sucursales_longitud":"-58.402557","incremento_pct":"8.47"},{"comercio_razon_social":"CARSA SA","sucursales_nombre":"Jara","sucursales_latitud":"-38.0020402","sucursales_longitud":"-57.5852835","incremento_pct":"18.63"},{"comercio_razon_social":"CARSA SA","sucursales_nombre":"Jardín América","sucursales_latitud":"-27.043194","sucursales_longitud":"-55.234163","incremento_pct":"5.72"},{"comercio_razon_social":"CARSA SA","sucursales_nombre":"Jumbo Nordelta","sucursales_latitud":"-34.4005","sucursales_longitud":"-58.6548","incremento_pct":"7.49"},{"comercio_razon_social":"CARSA SA","sucursales_nombre":"Junin","sucursales_latitud":"-34.5947","sucursales_longitud":"-60.9474","incremento_pct":"5.78"},{"comercio_razon_social":"CARSA SA","sucursales_nombre":"Junin","sucursales_latitud":"-34.5901720","sucursales_longitud":"-60.9466330","incremento_pct":"10.90"},{"comercio_razon_social":"CARSA SA","sucursales_nombre":"LA PLATA","sucursales_latitud":"-34.930175","sucursales_longitud":"-57.953545","incremento_pct":"5.77"},{"comercio_razon_social":"CARSA SA","sucursales_nombre":"La Plata","sucursales_latitud":"-34.893655","sucursales_longitud":"-57.996156","incremento_pct":"4.05"},{"comercio_razon_social":"CARSA SA","sucursales_nombre":"Las Breñas","sucursales_latitud":"-27.088930","sucursales_longitud":"-61.081220","incremento_pct":"4.05"},{"comercio_razon_social":"CARSA SA","sucursales_nombre":"Las Flores","sucursales_latitud":"-36.0149220","sucursales_longitud":"-59.1000250","incremento_pct":"8.59"},{"comercio_razon_social":"CARSA SA","sucursales_nombre":"Las Heras 2643","sucursales_latitud":"-34.584822","sucursales_longitud":"-58.400040","incremento_pct":"4.38"},{"comercio_razon_social":"CARSA SA","sucursales_nombre":"Las Heras..","sucursales_latitud":"-34.5608","sucursales_longitud":"-58.4499","incremento_pct":"18.63"},{"comercio_razon_social":"CARSA SA","sucursales_nombre":"Lavalleja 49","sucursales_latitud":"-31.413448","sucursales_longitud":"-64.192041","incremento_pct":"6.67"},{"comercio_razon_social":"CARSA SA","sucursales_nombre":"Leandro N. Alem","sucursales_latitud":"-27.610776","sucursales_longitud":"-55.326614","incremento_pct":"2.98"},{"comercio_razon_social":"CARSA SA","sucursales_nombre":"Leguizamon 1576","sucursales_latitud":"-34.653232","sucursales_longitud":"-58.507257","incremento_pct":"9.74"},{"comercio_razon_social":"CARSA SA","sucursales_nombre":"Libertad","sucursales_latitud":"-37.9779232","sucursales_longitud":"-57.5761531","incremento_pct":"6.03"},{"comercio_razon_social":"CARSA SA","sucursales_nombre":"Liniers","sucursales_latitud":"-34.6392887","sucursales_longitud":"-58.5280242","incremento_pct":"8.47"},{"comercio_razon_social":"CARSA SA","sucursales_nombre":"Local 2","sucursales_latitud":"-27.373226","sucursales_longitud":"-55.897406","incremento_pct":"10.90"},{"comercio_razon_social":"CARSA SA","sucursales_nombre":"Local 3","sucursales_latitud":"-27.396928","sucursales_longitud":"-55.909301","incremento_pct":"15.97"},{"comercio_razon_social":"CARSA SA","sucursales_nombre":"Local 4","sucursales_latitud":"-27.391194","sucursales_longitud":"-55.900862","incremento_pct":"10.75"},{"comercio_razon_social":"CARSA SA","sucursales_nombre":"Local 5","sucursales_latitud":"-27.360006","sucursales_longitud":"-55.893729","incremento_pct":"8.59"},{"comercio_razon_social":"CARSA SA","sucursales_nombre":"Local 7","sucursales_latitud":"-27.371972","sucursales_longitud":"-55.909678","incremento_pct":"8.47"},{"comercio_razon_social":"CARSA SA","sucursales_nombre":"Local M.com","sucursales_latitud":"-27.407530","sucursales_longitud":"-58.982070","incremento_pct":"16.23"},{"comercio_razon_social":"CARSA SA","sucursales_nombre":"Lomas","sucursales_latitud":"-34.7610941","sucursales_longitud":"-58.3996592","incremento_pct":"4.05"},{"comercio_razon_social":"CARSA SA","sucursales_nombre":"Luis M Drago 285","sucursales_latitud":"-34.601510","sucursales_longitud":"-58.437085","incremento_pct":"5.79"},{"comercio_razon_social":"CARSA SA","sucursales_nombre":"Luro","sucursales_latitud":"-37.9775913","sucursales_longitud":"-57.5896802","incremento_pct":"10.75"},{"comercio_razon_social":"CARSA SA","sucursales_nombre":"MANUEL QUINTANA 570","sucursales_latitud":"-34.587997","sucursales_longitud":"-58.390467","incremento_pct":"8.01"},{"comercio_razon_social":"CARSA SA","sucursales_nombre":"MORON ","sucursales_latitud":"-34.6502131","sucursales_longitud":"-58.6264209","incremento_pct":"8.48"},{"comercio_razon_social":"CARSA SA","sucursales_nombre":"MORÓN","sucursales_latitud":"-34.649293","sucursales_longitud":"-58.6233967","incremento_pct":"10.90"},{"comercio_razon_social":"CARSA SA","sucursales_nombre":"Machagaí","sucursales_latitud":"-26.927444","sucursales_longitud":"-60.046330","incremento_pct":"4.84"},{"comercio_razon_social":"CARSA SA","sucursales_nombre":"Maipú 171","sucursales_latitud":"-34.606155","sucursales_longitud":"-58.376453","incremento_pct":"6.52"},{"comercio_razon_social":"CARSA SA","sucursales_nombre":"Mar del Plata Centro","sucursales_latitud":"-37.998923","sucursales_longitud":"-57.553648","incremento_pct":"7.59"},{"comercio_razon_social":"CARSA SA","sucursales_nombre":"Mendoza San Rafael","sucursales_latitud":"-32.8852398","sucursales_longitud":"-68.8407103","incremento_pct":"8.90"},{"comercio_razon_social":"CARSA SA","sucursales_nombre":"Mendoza Vip","sucursales_latitud":"-32.8899844","sucursales_longitud":"-68.8394210","incremento_pct":"10.14"},{"comercio_razon_social":"CARSA SA","sucursales_nombre":"Mercedes, Corrientes 1","sucursales_latitud":"-29.182939","sucursales_longitud":"-58.073692","incremento_pct":"5.01"},{"comercio_razon_social":"CARSA SA","sucursales_nombre":"Monte Caseros","sucursales_latitud":"-30.253652","sucursales_longitud":"-57.644541","incremento_pct":"8.90"},{"comercio_razon_social":"CARSA SA","sucursales_nombre":"Montecarlo","sucursales_latitud":"-26.569378","sucursales_longitud":"-54.754035","incremento_pct":"3.79"},{"comercio_razon_social":"CARSA SA","sucursales_nombre":"Montes de Oca 304","sucursales_latitud":"-34.632222","sucursales_longitud":"-58.375998","incremento_pct":"5.52"},{"comercio_razon_social":"CARSA SA","sucursales_nombre":"Necochea III","sucursales_latitud":"-38.56006624534429","sucursales_longitud":"-58.732455241689706","incremento_pct":"3.95"},{"comercio_razon_social":"CARSA SA","sucursales_nombre":"Oberá","sucursales_latitud":"-27.486057","sucursales_longitud":"-55.120977","incremento_pct":"5.77"},{"comercio_razon_social":"CARSA SA","sucursales_nombre":"Olivos (Maipú)","sucursales_latitud":"-34.504534","sucursales_longitud":"-58.493843","incremento_pct":"5.15"},{"comercio_razon_social":"CARSA SA","sucursales_nombre":"Once (Ciudad)","sucursales_latitud":"-34.6055240","sucursales_longitud":"-58.4058611","incremento_pct":"6.03"},{"comercio_razon_social":"CARSA SA","sucursales_nombre":"PACHECO","sucursales_latitud":"-34.4593964","sucursales_longitud":"-58.6339903","incremento_pct":"8.59"},{"comercio_razon_social":"CARSA SA","sucursales_nombre":"POMPEYA","sucursales_latitud":"-34.6545836","sucursales_longitud":"-58.4196717","incremento_pct":"4.05"},{"comercio_razon_social":"CARSA SA","sucursales_nombre":"PORTAL LOMAS","sucursales_latitud":"-34.7924377","sucursales_longitud":"-58.4192216","incremento_pct":"15.97"},{"comercio_razon_social":"CARSA SA","sucursales_nombre":"PUERTO MADRYN","sucursales_latitud":"-42.764220","sucursales_longitud":"-65.036230","incremento_pct":"18.63"},{"comercio_razon_social":"CARSA SA","sucursales_nombre":"Palermo Canning","sucursales_latitud":"-34.580520","sucursales_longitud":"-58.410332","incremento_pct":"8.48"},{"comercio_razon_social":"CARSA SA","sucursales_nombre":"Paraná 1053","sucursales_latitud":"-34.596320","sucursales_longitud":"-58.388332","incremento_pct":"5.53"},{"comercio_razon_social":"CARSA SA","sucursales_nombre":"Paso de Los Libres","sucursales_latitud":"-29.714243","sucursales_longitud":"-57.087586","incremento_pct":"10.14"},{"comercio_razon_social":"CARSA SA","sucursales_nombre":"Peatonal Florida","sucursales_latitud":"-34.6046103","sucursales_longitud":"-58.3751591","incremento_pct":"5.77"},{"comercio_razon_social":"CARSA SA","sucursales_nombre":"Pena","sucursales_latitud":"-38.0102945","sucursales_longitud":"-57.5665797","incremento_pct":"10.90"},{"comercio_razon_social":"CARSA SA","sucursales_nombre":"Pinitos","sucursales_latitud":"-38.0187183","sucursales_longitud":"-57.5730078","incremento_pct":"15.97"},{"comercio_razon_social":"CARSA SA","sucursales_nombre":"Pirané","sucursales_latitud":"-25.732429","sucursales_longitud":"-59.107043","incremento_pct":"6.52"},{"comercio_razon_social":"CARSA SA","sucursales_nombre":"Posadas-Bolivar","sucursales_latitud":"-27.366576","sucursales_longitud":"-55.896310","incremento_pct":"15.97"},{"comercio_razon_social":"CARSA SA","sucursales_nombre":"Posadas-Uruguay","sucursales_latitud":"-27.376095","sucursales_longitud":"-55.898863","incremento_pct":"7.59"},{"comercio_razon_social":"CARSA SA","sucursales_nombre":"Puerto Esperanza 1.","sucursales_latitud":"-26.022623","sucursales_longitud":"-54.606463","incremento_pct":"4.46"},{"comercio_razon_social":"CARSA SA","sucursales_nombre":"Puerto Rico","sucursales_latitud":"-26.811486","sucursales_longitud":"-55.025685","incremento_pct":"6.40"},{"comercio_razon_social":"CARSA SA","sucursales_nombre":"QUILMES ","sucursales_latitud":"-34.7200918","sucursales_longitud":"-58.2627514","incremento_pct":"5.77"},{"comercio_razon_social":"CARSA SA","sucursales_nombre":"Quequen","sucursales_latitud":"-38.57077746377913","sucursales_longitud":"-58.69759494031314","incremento_pct":"8.48"},{"comercio_razon_social":"CARSA SA","sucursales_nombre":"Quilmes","sucursales_latitud":"-34.735911","sucursales_longitud":"-58.277988","incremento_pct":"8.47"},{"comercio_razon_social":"CARSA SA","sucursales_nombre":"Quintana.","sucursales_latitud":"-34.5897","sucursales_longitud":"-58.3886","incremento_pct":"6.03"},{"comercio_razon_social":"CARSA SA","sucursales_nombre":"Quitilipi","sucursales_latitud":"-26.872157","sucursales_longitud":"-60.216272","incremento_pct":"5.52"},{"comercio_razon_social":"CARSA SA","sucursales_nombre":"RINCON DE LOS SAUCES","sucursales_latitud":"-37.395400","sucursales_longitud":"-68.923060","incremento_pct":"9.65"},{"comercio_razon_social":"CARSA SA","sucursales_nombre":"RIO COLORADO","sucursales_latitud":"-38.988320","sucursales_longitud":"-64.097190","incremento_pct":"8.48"},{"comercio_razon_social":"CARSA SA","sucursales_nombre":"RIO GALLEGOS 4","sucursales_latitud":"-51.621540","sucursales_longitud":"-69.245520","incremento_pct":"3.07"},{"comercio_razon_social":"CARSA SA","sucursales_nombre":"RIO TURBIO","sucursales_latitud":"-51.535550","sucursales_longitud":"-72.336170","incremento_pct":"7.49"},{"comercio_razon_social":"CARSA SA","sucursales_nombre":"RIVER","sucursales_latitud":"-34.546397","sucursales_longitud":"-58.451884","incremento_pct":"15.97"},{"comercio_razon_social":"CARSA SA","sucursales_nombre":"Resistencia Las Heras","sucursales_latitud":"-27.463383","sucursales_longitud":"-58.986470","incremento_pct":"9.74"},{"comercio_razon_social":"CARSA SA","sucursales_nombre":"Resistencia Perón","sucursales_latitud":"-27.451799","sucursales_longitud":"-58.989561","incremento_pct":"18.63"},{"comercio_razon_social":"CARSA SA","sucursales_nombre":"Rivadavia","sucursales_latitud":"-34.60907","sucursales_longitud":"-58.39555","incremento_pct":"15.97"},{"comercio_razon_social":"CARSA SA","sucursales_nombre":"Roca","sucursales_latitud":"-38.715759146929834","sucursales_longitud":"-62.27162326850896","incremento_pct":"6.03"},{"comercio_razon_social":"CARSA SA","sucursales_nombre":"Roca.","sucursales_latitud":"-26.8398","sucursales_longitud":"-65.2228","incremento_pct":"3.95"},{"comercio_razon_social":"CARSA SA","sucursales_nombre":"Rosario Fisherton","sucursales_latitud":"-32.904529","sucursales_longitud":"-60.727936","incremento_pct":"6.03"},{"comercio_razon_social":"CARSA SA","sucursales_nombre":"SAN JOSÉ","sucursales_latitud":"-34.7608932","sucursales_longitud":"-58.363224","incremento_pct":"6.03"},{"comercio_razon_social":"CARSA SA","sucursales_nombre":"SAN JUSTO","sucursales_latitud":"-34.685645","sucursales_longitud":"-58.5604927","incremento_pct":"15.97"},{"comercio_razon_social":"CARSA SA","sucursales_nombre":"SAN MARTÍN","sucursales_latitud":"-34.5739135","sucursales_longitud":"-58.5355004","incremento_pct":"10.75"},{"comercio_razon_social":"CARSA SA","sucursales_nombre":"SAN MIGUEL","sucursales_latitud":"-34.5442589","sucursales_longitud":"-58.7117387","incremento_pct":"18.63"},{"comercio_razon_social":"CARSA SA","sucursales_nombre":"Saenz Peña","sucursales_latitud":"-26.790096","sucursales_longitud":"-60.441713","incremento_pct":"8.59"},{"comercio_razon_social":"CARSA SA","sucursales_nombre":"Salta","sucursales_latitud":"-37.9997406","sucursales_longitud":"-57.5600652","incremento_pct":"8.59"},{"comercio_razon_social":"CARSA SA","sucursales_nombre":"Salta","sucursales_latitud":"-24.7932202","sucursales_longitud":"-65.4110054","incremento_pct":"8.48"},{"comercio_razon_social":"CARSA SA","sucursales_nombre":"San Fernando II","sucursales_latitud":"-34.441795","sucursales_longitud":"-58.553738","incremento_pct":"8.36"},{"comercio_razon_social":"CARSA SA","sucursales_nombre":"San Justo","sucursales_latitud":"-34.6812179","sucursales_longitud":"-58.5572019","incremento_pct":"18.63"},{"comercio_razon_social":"CARSA SA","sucursales_nombre":"San Martin 625","sucursales_latitud":"-31.415653","sucursales_longitud":"-64.183859","incremento_pct":"4.03"},{"comercio_razon_social":"CARSA SA","sucursales_nombre":"San Vicente","sucursales_latitud":"-26.991705","sucursales_longitud":"-54.478818","incremento_pct":"5.26"},{"comercio_razon_social":"CARSA SA","sucursales_nombre":"Santa Fe 723","sucursales_latitud":"-31.402623","sucursales_longitud":"-64.199156","incremento_pct":"9.00"},{"comercio_razon_social":"CARSA SA","sucursales_nombre":"Segunda Selección","sucursales_latitud":"-34.6059370","sucursales_longitud":"-60.9675050","incremento_pct":"18.63"},{"comercio_razon_social":"CARSA SA","sucursales_nombre":"Stroeder                                                    ","sucursales_latitud":"-40.186761","sucursales_longitud":"-62.618364","incremento_pct":"15.97"},{"comercio_razon_social":"CARSA SA","sucursales_nombre":"Sucursal 2","sucursales_latitud":"-31.379569","sucursales_longitud":"-64.147652","incremento_pct":"10.90"},{"comercio_razon_social":"CARSA SA","sucursales_nombre":"Sucursal 3","sucursales_latitud":"-31.365896","sucursales_longitud":"-64.16644","incremento_pct":"15.97"},{"comercio_razon_social":"CARSA SA","sucursales_nombre":"Sucursal 4","sucursales_latitud":"-30.978745","sucursales_longitud":"-64.092456","incremento_pct":"10.75"},{"comercio_razon_social":"CARSA SA","sucursales_nombre":"Sucursal 5","sucursales_latitud":"-31.412738","sucursales_longitud":"-64.230768","incremento_pct":"8.59"},{"comercio_razon_social":"CARSA SA","sucursales_nombre":"Sucursal 7","sucursales_latitud":"-31.457372","sucursales_longitud":"-64.200399","incremento_pct":"8.47"},{"comercio_razon_social":"CARSA SA","sucursales_nombre":"Sucursal 8","sucursales_latitud":"-31.108277","sucursales_longitud":"-64.484196","incremento_pct":"4.05"},{"comercio_razon_social":"CARSA SA","sucursales_nombre":"TRELEW 25 DE MAYO","sucursales_latitud":"-43.256540","sucursales_longitud":"-65.321750","incremento_pct":"3.95"},{"comercio_razon_social":"CARSA SA","sucursales_nombre":"Talcahuano","sucursales_latitud":"-38.0254359","sucursales_longitud":"-57.5709071","incremento_pct":"8.47"},{"comercio_razon_social":"CARSA SA","sucursales_nombre":"Talcahuano 841","sucursales_latitud":"-34.598783","sucursales_longitud":"-58.385461","incremento_pct":"4.84"},{"comercio_razon_social":"CARSA SA","sucursales_nombre":"Talcahuano...","sucursales_latitud":"-34.5964","sucursales_longitud":"-58.3876","incremento_pct":"10.90"},{"comercio_razon_social":"CARSA SA","sucursales_nombre":"Tandil","sucursales_latitud":"-37.3282650","sucursales_longitud":"-59.1361350","incremento_pct":"6.03"},{"comercio_razon_social":"CARSA SA","sucursales_nombre":"Tandil II","sucursales_latitud":"-37.326474","sucursales_longitud":"-59.135087","incremento_pct":"3.95"},{"comercio_razon_social":"CARSA SA","sucursales_nombre":"Tortugas Shopping","sucursales_latitud":"-34.4532950","sucursales_longitud":"-58.7294300","incremento_pct":"7.59"},{"comercio_razon_social":"CARSA SA","sucursales_nombre":"Tres Isletas 1.","sucursales_latitud":"-26.338198","sucursales_longitud":"-60.427577","incremento_pct":"6.38"},{"comercio_razon_social":"CARSA SA","sucursales_nombre":"USHUAIA 4","sucursales_latitud":"-54.810100","sucursales_longitud":"-68.318310","incremento_pct":"5.01"},{"comercio_razon_social":"CARSA SA","sucursales_nombre":"Vea 3.","sucursales_latitud":"-32.8942","sucursales_longitud":"-68.7890","incremento_pct":"9.65"},{"comercio_razon_social":"CARSA SA","sucursales_nombre":"Venado Tuerto","sucursales_latitud":"-33.7475140","sucursales_longitud":"-61.9657310","incremento_pct":"15.97"},{"comercio_razon_social":"CARSA SA","sucursales_nombre":"Vicente López","sucursales_latitud":"-34.532302","sucursales_longitud":"-58.468176","incremento_pct":"10.90"},{"comercio_razon_social":"CARSA SA","sucursales_nombre":"Vicente López.","sucursales_latitud":"-34.5201","sucursales_longitud":"-58.4877","incremento_pct":"10.75"},{"comercio_razon_social":"CARSA SA","sucursales_nombre":"Villa Angela","sucursales_latitud":"-27.577480","sucursales_longitud":"-60.711960","incremento_pct":"8.47"},{"comercio_razon_social":"CARSA SA","sucursales_nombre":"Villa Gesell","sucursales_latitud":"-37.261552072642736","sucursales_longitud":"-56.98444443880908","incremento_pct":"7.59"},{"comercio_razon_social":"CARSA SA","sucursales_nombre":"Villa Mitre","sucursales_latitud":"-38.728791630262535","sucursales_longitud":"-62.2442264146805","incremento_pct":"10.90"},{"comercio_razon_social":"CARSA SA","sucursales_nombre":"Vélez Sarsfield","sucursales_latitud":"-34.633237","sucursales_longitud":"-58.521966","incremento_pct":"8.59"},{"comercio_razon_social":"CARSA SA","sucursales_nombre":"Zanni.","sucursales_latitud":"-31.4054","sucursales_longitud":"-64.2119","incremento_pct":"0.00"},{"comercio_razon_social":"COTO CENTRO INTEGRAL DE COMERCIALIZACION S.A.","sucursales_nombre":" BANFIELD ","sucursales_latitud":"-34.7494248","sucursales_longitud":"-58.4002232","incremento_pct":"10.06"},{"comercio_razon_social":"COTO CENTRO INTEGRAL DE COMERCIALIZACION S.A.","sucursales_nombre":" CULLEN ","sucursales_latitud":"-34.5728529","sucursales_longitud":"-58.4878818","incremento_pct":"15.44"},{"comercio_razon_social":"COTO CENTRO INTEGRAL DE COMERCIALIZACION S.A.","sucursales_nombre":" PTE. PERON ","sucursales_latitud":"-34.6071216","sucursales_longitud":"-58.3960221","incremento_pct":"15.39"},{"comercio_razon_social":"COTO CENTRO INTEGRAL DE COMERCIALIZACION S.A.","sucursales_nombre":" TEODORO GARCIA ","sucursales_latitud":"-34.5698358","sucursales_longitud":"-58.4459054","incremento_pct":"15.15"},{"comercio_razon_social":"COTO CENTRO INTEGRAL DE COMERCIALIZACION S.A.","sucursales_nombre":"101 - SAN FERNANDO","sucursales_latitud":"-34.4982986","sucursales_longitud":"-58.6389961","incremento_pct":"12.39"},{"comercio_razon_social":"COTO CENTRO INTEGRAL DE COMERCIALIZACION S.A.","sucursales_nombre":"103 - OLIVOS","sucursales_latitud":"-34.5185576","sucursales_longitud":"-58.5005836","incremento_pct":"10.15"},{"comercio_razon_social":"COTO CENTRO INTEGRAL DE COMERCIALIZACION S.A.","sucursales_nombre":"104 - SAN VICENTE","sucursales_latitud":"-35.0221052","sucursales_longitud":"-58.4204728","incremento_pct":"11.72"},{"comercio_razon_social":"COTO CENTRO INTEGRAL DE COMERCIALIZACION S.A.","sucursales_nombre":"105 - SAN MARTIN","sucursales_latitud":"-34.5911652","sucursales_longitud":"-58.5591593","incremento_pct":"9.93"},{"comercio_razon_social":"COTO CENTRO INTEGRAL DE COMERCIALIZACION S.A.","sucursales_nombre":"107 - LUIS GUILLON","sucursales_latitud":"-34.8032345","sucursales_longitud":"-58.4494122","incremento_pct":"9.26"},{"comercio_razon_social":"COTO CENTRO INTEGRAL DE COMERCIALIZACION S.A.","sucursales_nombre":"108 - VILLA URQUIZA","sucursales_latitud":"-34.5694121","sucursales_longitud":"-58.477915","incremento_pct":"14.21"},{"comercio_razon_social":"COTO CENTRO INTEGRAL DE COMERCIALIZACION S.A.","sucursales_nombre":"109 - NÚÑEZ","sucursales_latitud":"-34.5500853","sucursales_longitud":"-58.463929","incremento_pct":"12.11"},{"comercio_razon_social":"COTO CENTRO INTEGRAL DE COMERCIALIZACION S.A.","sucursales_nombre":"110 - TRUJUI","sucursales_latitud":"-34.5856526","sucursales_longitud":"-58.747632","incremento_pct":"14.55"},{"comercio_razon_social":"COTO CENTRO INTEGRAL DE COMERCIALIZACION S.A.","sucursales_nombre":"111 - NÚÑEZ","sucursales_latitud":"-34.542076","sucursales_longitud":"-58.4733624","incremento_pct":"14.34"},{"comercio_razon_social":"COTO CENTRO INTEGRAL DE COMERCIALIZACION S.A.","sucursales_nombre":"116 - INGENIERO MASCHWITZ","sucursales_latitud":"-34.391595","sucursales_longitud":"-58.738736","incremento_pct":"12.70"},{"comercio_razon_social":"COTO CENTRO INTEGRAL DE COMERCIALIZACION S.A.","sucursales_nombre":"117 - VILLA URQUIZA","sucursales_latitud":"-34.5685513","sucursales_longitud":"-58.4928642","incremento_pct":"14.84"},{"comercio_razon_social":"COTO CENTRO INTEGRAL DE COMERCIALIZACION S.A.","sucursales_nombre":"118 - BURZACO","sucursales_latitud":"-34.826231","sucursales_longitud":"-58.393707","incremento_pct":"14.20"},{"comercio_razon_social":"COTO CENTRO INTEGRAL DE COMERCIALIZACION S.A.","sucursales_nombre":"123 - BERAZATEGUI","sucursales_latitud":"-34.7652851","sucursales_longitud":"-58.1979191","incremento_pct":"14.89"},{"comercio_razon_social":"COTO CENTRO INTEGRAL DE COMERCIALIZACION S.A.","sucursales_nombre":"124 - BOEDO","sucursales_latitud":"-34.6247055","sucursales_longitud":"-58.4097384","incremento_pct":"14.55"},{"comercio_razon_social":"COTO CENTRO INTEGRAL DE COMERCIALIZACION S.A.","sucursales_nombre":"125 - TIGRE","sucursales_latitud":"-34.4574987","sucursales_longitud":"-58.6816499","incremento_pct":"17.51"},{"comercio_razon_social":"COTO CENTRO INTEGRAL DE COMERCIALIZACION S.A.","sucursales_nombre":"129 - LA REJA","sucursales_latitud":"-34.6375809","sucursales_longitud":"-58.8281784","incremento_pct":"8.01"},{"comercio_razon_social":"COTO CENTRO INTEGRAL DE COMERCIALIZACION S.A.","sucursales_nombre":"13 - FLORES","sucursales_latitud":"-34.6243386","sucursales_longitud":"-58.4725229","incremento_pct":"10.49"},{"comercio_razon_social":"COTO CENTRO INTEGRAL DE COMERCIALIZACION S.A.","sucursales_nombre":"130 - CIUDADELA","sucursales_latitud":"-34.6182294","sucursales_longitud":"-58.5442501","incremento_pct":"15.94"},{"comercio_razon_social":"COTO CENTRO INTEGRAL DE COMERCIALIZACION S.A.","sucursales_nombre":"131 - LLAVALLOL","sucursales_latitud":"-34.798211","sucursales_longitud":"-58.4252917","incremento_pct":"8.39"},{"comercio_razon_social":"COTO CENTRO INTEGRAL DE COMERCIALIZACION S.A.","sucursales_nombre":"136 - VILLA LURO","sucursales_latitud":"-34.6486865","sucursales_longitud":"-58.4884177","incremento_pct":"15.74"},{"comercio_razon_social":"COTO CENTRO INTEGRAL DE COMERCIALIZACION S.A.","sucursales_nombre":"149 - BENAVIDEZ","sucursales_latitud":"-34.4103806","sucursales_longitud":"-58.6863928","incremento_pct":"14.70"},{"comercio_razon_social":"COTO CENTRO INTEGRAL DE COMERCIALIZACION S.A.","sucursales_nombre":"151 - VILLA BOSCH","sucursales_latitud":"-34.59312","sucursales_longitud":"-58.571361","incremento_pct":"13.42"},{"comercio_razon_social":"COTO CENTRO INTEGRAL DE COMERCIALIZACION S.A.","sucursales_nombre":"154 - LONGCHAMPS","sucursales_latitud":"-34.8600505","sucursales_longitud":"-58.3849381","incremento_pct":"12.34"},{"comercio_razon_social":"COTO CENTRO INTEGRAL DE COMERCIALIZACION S.A.","sucursales_nombre":"155 - LANUS","sucursales_latitud":"-34.7212849","sucursales_longitud":"-58.3629215","incremento_pct":"11.28"},{"comercio_razon_social":"COTO CENTRO INTEGRAL DE COMERCIALIZACION S.A.","sucursales_nombre":"155 HIGHLAND PARK ","sucursales_latitud":"-34.419958","sucursales_longitud":"-58.794678","incremento_pct":"11.28"},{"comercio_razon_social":"COTO CENTRO INTEGRAL DE COMERCIALIZACION S.A.","sucursales_nombre":"158 - BOULOGNE SUR MER","sucursales_latitud":"-34.5098719","sucursales_longitud":"-58.5775618","incremento_pct":"11.54"},{"comercio_razon_social":"COTO CENTRO INTEGRAL DE COMERCIALIZACION S.A.","sucursales_nombre":"160 - CHILAVERT","sucursales_latitud":"-34.544654","sucursales_longitud":"-58.568523","incremento_pct":"8.52"},{"comercio_razon_social":"COTO CENTRO INTEGRAL DE COMERCIALIZACION S.A.","sucursales_nombre":"163 - ENSENADA","sucursales_latitud":"-34.8571545","sucursales_longitud":"-57.9168134","incremento_pct":"14.39"},{"comercio_razon_social":"COTO CENTRO INTEGRAL DE COMERCIALIZACION S.A.","sucursales_nombre":"164 - BALVANERA","sucursales_latitud":"-34.604513","sucursales_longitud":"-58.3949583","incremento_pct":"14.70"},{"comercio_razon_social":"COTO CENTRO INTEGRAL DE COMERCIALIZACION S.A.","sucursales_nombre":"165 - MORENO","sucursales_latitud":"-34.638963","sucursales_longitud":"-58.737751","incremento_pct":"7.36"},{"comercio_razon_social":"COTO CENTRO INTEGRAL DE COMERCIALIZACION S.A.","sucursales_nombre":"168 - VILLA CRESPO","sucursales_latitud":"-34.594997","sucursales_longitud":"-58.4196875","incremento_pct":"13.44"},{"comercio_razon_social":"COTO CENTRO INTEGRAL DE COMERCIALIZACION S.A.","sucursales_nombre":"171 - TIGRE","sucursales_latitud":"-34.4255709","sucursales_longitud":"-58.577033","incremento_pct":"11.13"},{"comercio_razon_social":"COTO CENTRO INTEGRAL DE COMERCIALIZACION S.A.","sucursales_nombre":"174 - SAN FRANCISCO SOLANO","sucursales_latitud":"-34.792414","sucursales_longitud":"-58.310215","incremento_pct":"15.44"},{"comercio_razon_social":"COTO CENTRO INTEGRAL DE COMERCIALIZACION S.A.","sucursales_nombre":"176 - CORONEL BRANDSEN","sucursales_latitud":"-35.169002","sucursales_longitud":"-58.231875","incremento_pct":"15.15"},{"comercio_razon_social":"COTO CENTRO INTEGRAL DE COMERCIALIZACION S.A.","sucursales_nombre":"179 - MAQ FRANCISCO SAVIO","sucursales_latitud":"-34.409353","sucursales_longitud":"-58.771731","incremento_pct":"11.33"},{"comercio_razon_social":"COTO CENTRO INTEGRAL DE COMERCIALIZACION S.A.","sucursales_nombre":"180 - LOMA VERDE","sucursales_latitud":"-34.8183783","sucursales_longitud":"-58.4257131","incremento_pct":"15.25"},{"comercio_razon_social":"COTO CENTRO INTEGRAL DE COMERCIALIZACION S.A.","sucursales_nombre":"182 - ADROGUE","sucursales_latitud":"-34.7997695","sucursales_longitud":"-58.3959092","incremento_pct":"6.58"},{"comercio_razon_social":"COTO CENTRO INTEGRAL DE COMERCIALIZACION S.A.","sucursales_nombre":"183 - SANTOS LUGARES","sucursales_latitud":"-34.5975856","sucursales_longitud":"-58.5423574","incremento_pct":"10.06"},{"comercio_razon_social":"COTO CENTRO INTEGRAL DE COMERCIALIZACION S.A.","sucursales_nombre":"184 - MAR DEL PLATA","sucursales_latitud":"-37.9876162","sucursales_longitud":"-57.560025","incremento_pct":"6.49"},{"comercio_razon_social":"COTO CENTRO INTEGRAL DE COMERCIALIZACION S.A.","sucursales_nombre":"185 - MAR DEL PLATA","sucursales_latitud":"-37.9742308","sucursales_longitud":"-57.5945595","incremento_pct":"6.66"},{"comercio_razon_social":"COTO CENTRO INTEGRAL DE COMERCIALIZACION S.A.","sucursales_nombre":"186 - INGENIERO PABLO NOGUES","sucursales_latitud":"-34.494028","sucursales_longitud":"-58.704919","incremento_pct":"11.74"},{"comercio_razon_social":"COTO CENTRO INTEGRAL DE COMERCIALIZACION S.A.","sucursales_nombre":"189 - ALMAGRO","sucursales_latitud":"-34.6109309","sucursales_longitud":"-58.4168101","incremento_pct":"7.22"},{"comercio_razon_social":"COTO CENTRO INTEGRAL DE COMERCIALIZACION S.A.","sucursales_nombre":"19 - SAN JUSTO","sucursales_latitud":"-34.6830345","sucursales_longitud":"-58.5553009","incremento_pct":"12.54"},{"comercio_razon_social":"COTO CENTRO INTEGRAL DE COMERCIALIZACION S.A.","sucursales_nombre":"197 - COLEGIALES","sucursales_latitud":"-34.5660554","sucursales_longitud":"-58.4541372","incremento_pct":"7.83"},{"comercio_razon_social":"COTO CENTRO INTEGRAL DE COMERCIALIZACION S.A.","sucursales_nombre":"199 - MAIPU","sucursales_latitud":"-36.863464","sucursales_longitud":"-57.880218","incremento_pct":"10.23"},{"comercio_razon_social":"COTO CENTRO INTEGRAL DE COMERCIALIZACION S.A.","sucursales_nombre":"20 - VERSALLES","sucursales_latitud":"-34.6235495","sucursales_longitud":"-58.5107956","incremento_pct":"11.38"},{"comercio_razon_social":"COTO CENTRO INTEGRAL DE COMERCIALIZACION S.A.","sucursales_nombre":"203 - LOMAS DE ZAMORA","sucursales_latitud":"-34.7079051","sucursales_longitud":"-58.4586922","incremento_pct":"8.97"},{"comercio_razon_social":"COTO CENTRO INTEGRAL DE COMERCIALIZACION S.A.","sucursales_nombre":"204 - SAN MARTIN","sucursales_latitud":"-34.531295","sucursales_longitud":"-58.555112","incremento_pct":"9.49"},{"comercio_razon_social":"COTO CENTRO INTEGRAL DE COMERCIALIZACION S.A.","sucursales_nombre":"208 - CABALLITO","sucursales_latitud":"-34.6273661","sucursales_longitud":"-58.4466235","incremento_pct":"10.21"},{"comercio_razon_social":"COTO CENTRO INTEGRAL DE COMERCIALIZACION S.A.","sucursales_nombre":"209 - BARRACAS","sucursales_latitud":"-34.6373762","sucursales_longitud":"-58.3697099","incremento_pct":"9.68"},{"comercio_razon_social":"COTO CENTRO INTEGRAL DE COMERCIALIZACION S.A.","sucursales_nombre":"219 - VILLA GENERAL MITRE","sucursales_latitud":"-34.6052957","sucursales_longitud":"-58.4740289","incremento_pct":"9.33"},{"comercio_razon_social":"COTO CENTRO INTEGRAL DE COMERCIALIZACION S.A.","sucursales_nombre":"220 - GLEW","sucursales_latitud":"-34.887216","sucursales_longitud":"-58.384251","incremento_pct":"9.03"},{"comercio_razon_social":"COTO CENTRO INTEGRAL DE COMERCIALIZACION S.A.","sucursales_nombre":"24 - VILLA CRESPO","sucursales_latitud":"-34.6031233","sucursales_longitud":"-58.4637523","incremento_pct":"14.23"},{"comercio_razon_social":"COTO CENTRO INTEGRAL DE COMERCIALIZACION S.A.","sucursales_nombre":"25 - BERNAL","sucursales_latitud":"-34.7116294","sucursales_longitud":"-58.2820677","incremento_pct":"14.28"},{"comercio_razon_social":"COTO CENTRO INTEGRAL DE COMERCIALIZACION S.A.","sucursales_nombre":"25 de Mayo","sucursales_latitud":"-35.4296470","sucursales_longitud":"-60.1706530","incremento_pct":"10.49"},{"comercio_razon_social":"COTO CENTRO INTEGRAL DE COMERCIALIZACION S.A.","sucursales_nombre":"26 - LANUS","sucursales_latitud":"-34.7073674","sucursales_longitud":"-58.4181855","incremento_pct":"12.21"},{"comercio_razon_social":"COTO CENTRO INTEGRAL DE COMERCIALIZACION S.A.","sucursales_nombre":"28 DE NOVIEMBRE 2","sucursales_latitud":"-51.575630","sucursales_longitud":"-72.213560","incremento_pct":"9.49"},{"comercio_razon_social":"COTO CENTRO INTEGRAL DE COMERCIALIZACION S.A.","sucursales_nombre":"35 - BOEDO","sucursales_latitud":"-34.6235872","sucursales_longitud":"-58.4162756","incremento_pct":"12.86"},{"comercio_razon_social":"COTO CENTRO INTEGRAL DE COMERCIALIZACION S.A.","sucursales_nombre":"37 - VICENTE LOPEZ","sucursales_latitud":"-34.4978183","sucursales_longitud":"-58.4892685","incremento_pct":"12.26"},{"comercio_razon_social":"COTO CENTRO INTEGRAL DE COMERCIALIZACION S.A.","sucursales_nombre":"39 - CAÑUELAS","sucursales_latitud":"-35.0530892","sucursales_longitud":"-58.7606411","incremento_pct":"12.69"},{"comercio_razon_social":"COTO CENTRO INTEGRAL DE COMERCIALIZACION S.A.","sucursales_nombre":"40 - EZEIZA","sucursales_latitud":"-34.891004","sucursales_longitud":"-58.566485","incremento_pct":"13.54"},{"comercio_razon_social":"COTO CENTRO INTEGRAL DE COMERCIALIZACION S.A.","sucursales_nombre":"41 - BERISSO","sucursales_latitud":"-34.8702073","sucursales_longitud":"-57.8808734","incremento_pct":"12.90"},{"comercio_razon_social":"COTO CENTRO INTEGRAL DE COMERCIALIZACION S.A.","sucursales_nombre":"42 - VERSALLES","sucursales_latitud":"-34.6178053","sucursales_longitud":"-58.5020885","incremento_pct":"13.42"},{"comercio_razon_social":"COTO CENTRO INTEGRAL DE COMERCIALIZACION S.A.","sucursales_nombre":"43 - BERISSO","sucursales_latitud":"-34.8742082","sucursales_longitud":"-57.8678337","incremento_pct":"11.20"},{"comercio_razon_social":"COTO CENTRO INTEGRAL DE COMERCIALIZACION S.A.","sucursales_nombre":"44 - LOMAS DEL MIRADOR","sucursales_latitud":"-34.6673153","sucursales_longitud":"-58.5306422","incremento_pct":"9.66"},{"comercio_razon_social":"COTO CENTRO INTEGRAL DE COMERCIALIZACION S.A.","sucursales_nombre":"45 - MATADEROS","sucursales_latitud":"-34.650879","sucursales_longitud":"-58.5153128","incremento_pct":"9.44"},{"comercio_razon_social":"COTO CENTRO INTEGRAL DE COMERCIALIZACION S.A.","sucursales_nombre":"46 - MATADEROS","sucursales_latitud":"-34.6524097","sucursales_longitud":"-58.5033599","incremento_pct":"13.05"},{"comercio_razon_social":"COTO CENTRO INTEGRAL DE COMERCIALIZACION S.A.","sucursales_nombre":"47 - VILLA LUGANO","sucursales_latitud":"-34.6760405","sucursales_longitud":"-58.47618","incremento_pct":"11.22"},{"comercio_razon_social":"COTO CENTRO INTEGRAL DE COMERCIALIZACION S.A.","sucursales_nombre":"48 - LUJAN","sucursales_latitud":"-34.567026","sucursales_longitud":"-59.111166","incremento_pct":"12.10"},{"comercio_razon_social":"COTO CENTRO INTEGRAL DE COMERCIALIZACION S.A.","sucursales_nombre":"49 - VILLA SANTA RITA","sucursales_latitud":"-34.6140308","sucursales_longitud":"-58.4929315","incremento_pct":"11.80"},{"comercio_razon_social":"COTO CENTRO INTEGRAL DE COMERCIALIZACION S.A.","sucursales_nombre":"51 - LOMAS DE ZAMORA","sucursales_latitud":"-34.7431662","sucursales_longitud":"-58.3939275","incremento_pct":"10.52"},{"comercio_razon_social":"COTO CENTRO INTEGRAL DE COMERCIALIZACION S.A.","sucursales_nombre":"52 - VILLA CRESPO","sucursales_latitud":"-34.6058424","sucursales_longitud":"-58.4533825","incremento_pct":"12.96"},{"comercio_razon_social":"COTO CENTRO INTEGRAL DE COMERCIALIZACION S.A.","sucursales_nombre":"53 - ISIDRO CASANOVA","sucursales_latitud":"-34.6927276","sucursales_longitud":"-58.6077235","incremento_pct":"14.29"},{"comercio_razon_social":"COTO CENTRO INTEGRAL DE COMERCIALIZACION S.A.","sucursales_nombre":"55 - ENSENADA","sucursales_latitud":"-34.860558","sucursales_longitud":"-57.9032607","incremento_pct":"13.33"},{"comercio_razon_social":"COTO CENTRO INTEGRAL DE COMERCIALIZACION S.A.","sucursales_nombre":"56 - VILLA LURO","sucursales_latitud":"-34.6436537","sucursales_longitud":"-58.4927124","incremento_pct":"10.69"},{"comercio_razon_social":"COTO CENTRO INTEGRAL DE COMERCIALIZACION S.A.","sucursales_nombre":"57 - VICENTE LOPEZ","sucursales_latitud":"-34.5376215","sucursales_longitud":"-58.5117145","incremento_pct":"13.12"},{"comercio_razon_social":"COTO CENTRO INTEGRAL DE COMERCIALIZACION S.A.","sucursales_nombre":"58 - BALVANERA","sucursales_latitud":"-34.615999","sucursales_longitud":"-58.408296","incremento_pct":"12.19"},{"comercio_razon_social":"COTO CENTRO INTEGRAL DE COMERCIALIZACION S.A.","sucursales_nombre":"59 - SAN FRANCISCO SOLANO","sucursales_latitud":"-34.7793172","sucursales_longitud":"-58.3102963","incremento_pct":"11.80"},{"comercio_razon_social":"COTO CENTRO INTEGRAL DE COMERCIALIZACION S.A.","sucursales_nombre":"6 - FLORES","sucursales_latitud":"-34.6289482","sucursales_longitud":"-58.4642662","incremento_pct":"12.45"},{"comercio_razon_social":"COTO CENTRO INTEGRAL DE COMERCIALIZACION S.A.","sucursales_nombre":"60 - FLORESTA","sucursales_latitud":"-34.6248959","sucursales_longitud":"-58.4938555","incremento_pct":"9.86"},{"comercio_razon_social":"COTO CENTRO INTEGRAL DE COMERCIALIZACION S.A.","sucursales_nombre":"61 - LOMA HERMOSA","sucursales_latitud":"-34.562834","sucursales_longitud":"-58.6101726","incremento_pct":"10.58"},{"comercio_razon_social":"COTO CENTRO INTEGRAL DE COMERCIALIZACION S.A.","sucursales_nombre":"63 - LAFERRERE","sucursales_latitud":"-34.7482106","sucursales_longitud":"-58.5884615","incremento_pct":"10.56"},{"comercio_razon_social":"COTO CENTRO INTEGRAL DE COMERCIALIZACION S.A.","sucursales_nombre":"64 - MERLO","sucursales_latitud":"-34.6612587","sucursales_longitud":"-58.7263109","incremento_pct":"10.71"},{"comercio_razon_social":"COTO CENTRO INTEGRAL DE COMERCIALIZACION S.A.","sucursales_nombre":"65 - VILLA URQUIZA","sucursales_latitud":"-34.5795557","sucursales_longitud":"-58.4770438","incremento_pct":"13.86"},{"comercio_razon_social":"COTO CENTRO INTEGRAL DE COMERCIALIZACION S.A.","sucursales_nombre":"66 - TORTUGUITAS","sucursales_latitud":"-34.47267","sucursales_longitud":"-58.762683","incremento_pct":"13.53"},{"comercio_razon_social":"COTO CENTRO INTEGRAL DE COMERCIALIZACION S.A.","sucursales_nombre":"67 - ALMIRANTE BROWN","sucursales_latitud":"-34.7693312","sucursales_longitud":"-58.3556143","incremento_pct":"14.72"},{"comercio_razon_social":"COTO CENTRO INTEGRAL DE COMERCIALIZACION S.A.","sucursales_nombre":"68 - MORON","sucursales_latitud":"-34.6307077","sucursales_longitud":"-58.5897402","incremento_pct":"14.83"},{"comercio_razon_social":"COTO CENTRO INTEGRAL DE COMERCIALIZACION S.A.","sucursales_nombre":"69 - PALERMO","sucursales_latitud":"-34.6049604","sucursales_longitud":"-58.4208375","incremento_pct":"14.83"},{"comercio_razon_social":"COTO CENTRO INTEGRAL DE COMERCIALIZACION S.A.","sucursales_nombre":"7 - ALMAGRO","sucursales_latitud":"-34.6024774","sucursales_longitud":"-58.4281829","incremento_pct":"13.29"},{"comercio_razon_social":"COTO CENTRO INTEGRAL DE COMERCIALIZACION S.A.","sucursales_nombre":"70 - RAFAEL CASTILLO","sucursales_latitud":"-34.754677","sucursales_longitud":"-58.613909","incremento_pct":"16.74"},{"comercio_razon_social":"COTO CENTRO INTEGRAL DE COMERCIALIZACION S.A.","sucursales_nombre":"74 - FLORENCIO VARELA","sucursales_latitud":"-34.8068123","sucursales_longitud":"-58.301815","incremento_pct":"16.66"},{"comercio_razon_social":"COTO CENTRO INTEGRAL DE COMERCIALIZACION S.A.","sucursales_nombre":"75 - VILLA SOLDATI","sucursales_latitud":"-34.6653764","sucursales_longitud":"-58.4427103","incremento_pct":"14.36"},{"comercio_razon_social":"COTO CENTRO INTEGRAL DE COMERCIALIZACION S.A.","sucursales_nombre":"78 - EL JAGUEL PDO ESTEB ECHE","sucursales_latitud":"-34.8338743","sucursales_longitud":"-58.4949847","incremento_pct":"11.89"},{"comercio_razon_social":"COTO CENTRO INTEGRAL DE COMERCIALIZACION S.A.","sucursales_nombre":"80 - EZEIZA","sucursales_latitud":"-34.8519579","sucursales_longitud":"-58.5222721","incremento_pct":"12.27"},{"comercio_razon_social":"COTO CENTRO INTEGRAL DE COMERCIALIZACION S.A.","sucursales_nombre":"82 - LANUS","sucursales_latitud":"-34.7256805","sucursales_longitud":"-58.3981378","incremento_pct":"12.71"},{"comercio_razon_social":"COTO CENTRO INTEGRAL DE COMERCIALIZACION S.A.","sucursales_nombre":"83 - EZEIZA","sucursales_latitud":"-34.9105116","sucursales_longitud":"-58.5930473","incremento_pct":"12.27"},{"comercio_razon_social":"COTO CENTRO INTEGRAL DE COMERCIALIZACION S.A.","sucursales_nombre":"84 - VICENTE LOPEZ","sucursales_latitud":"-34.5286128","sucursales_longitud":"-58.4931423","incremento_pct":"12.55"},{"comercio_razon_social":"COTO CENTRO INTEGRAL DE COMERCIALIZACION S.A.","sucursales_nombre":"85 - VILLA SOLDATI","sucursales_latitud":"-34.6674682","sucursales_longitud":"-58.4734538","incremento_pct":"12.94"},{"comercio_razon_social":"COTO CENTRO INTEGRAL DE COMERCIALIZACION S.A.","sucursales_nombre":"88 - RAFAEL CASTILLO","sucursales_latitud":"-34.73492","sucursales_longitud":"-58.5853229","incremento_pct":"19.21"},{"comercio_razon_social":"COTO CENTRO INTEGRAL DE COMERCIALIZACION S.A.","sucursales_nombre":"9 de Julio","sucursales_latitud":"-35.451289482419185","sucursales_longitud":"-60.89747634512605","incremento_pct":"14.34"},{"comercio_razon_social":"COTO CENTRO INTEGRAL DE COMERCIALIZACION S.A.","sucursales_nombre":"90 - VILLA CRESPO","sucursales_latitud":"-34.6089665","sucursales_longitud":"-58.4414318","incremento_pct":"11.34"},{"comercio_razon_social":"COTO CENTRO INTEGRAL DE COMERCIALIZACION S.A.","sucursales_nombre":"91 - VILLA LURO","sucursales_latitud":"-34.6375385","sucursales_longitud":"-58.5001704","incremento_pct":"7.57"},{"comercio_razon_social":"COTO CENTRO INTEGRAL DE COMERCIALIZACION S.A.","sucursales_nombre":"92 - DEL VISO","sucursales_latitud":"-34.4517657","sucursales_longitud":"-58.7974943","incremento_pct":"10.16"},{"comercio_razon_social":"COTO CENTRO INTEGRAL DE COMERCIALIZACION S.A.","sucursales_nombre":"94 - HURLINGHAM","sucursales_latitud":"-34.58276","sucursales_longitud":"-58.658565","incremento_pct":"10.08"},{"comercio_razon_social":"COTO CENTRO INTEGRAL DE COMERCIALIZACION S.A.","sucursales_nombre":"96 - ALEJANDRO KORN","sucursales_latitud":"-34.984291","sucursales_longitud":"-58.376123","incremento_pct":"10.64"},{"comercio_razon_social":"COTO CENTRO INTEGRAL DE COMERCIALIZACION S.A.","sucursales_nombre":"99 - PASO DEL REY","sucursales_latitud":"-34.65598","sucursales_longitud":"-58.762382","incremento_pct":"10.28"},{"comercio_razon_social":"COTO CENTRO INTEGRAL DE COMERCIALIZACION S.A.","sucursales_nombre":"A.SERV.N 1 COM.RIVADAVIA","sucursales_latitud":"-45.860430","sucursales_longitud":"-67.498840","incremento_pct":"14.23"},{"comercio_razon_social":"COTO CENTRO INTEGRAL DE COMERCIALIZACION S.A.","sucursales_nombre":"A.SERV.N 2 COM.RIVADAVIA","sucursales_latitud":"-45.875190","sucursales_longitud":"-67.519110","incremento_pct":"14.28"},{"comercio_razon_social":"COTO CENTRO INTEGRAL DE COMERCIALIZACION S.A.","sucursales_nombre":"ABASTO ","sucursales_latitud":"-34.6027526","sucursales_longitud":"-58.4114132","incremento_pct":"7.57"},{"comercio_razon_social":"COTO CENTRO INTEGRAL DE COMERCIALIZACION S.A.","sucursales_nombre":"ACA AUTODROMO","sucursales_latitud":"-34.68075","sucursales_longitud":"-58.45034","incremento_pct":"9.66"},{"comercio_razon_social":"COTO CENTRO INTEGRAL DE COMERCIALIZACION S.A.","sucursales_nombre":"ACA CABALLITO","sucursales_latitud":"-34.60805","sucursales_longitud":"-58.44684","incremento_pct":"12.71"},{"comercio_razon_social":"COTO CENTRO INTEGRAL DE COMERCIALIZACION S.A.","sucursales_nombre":"ACA ONCE","sucursales_latitud":"-34.61054","sucursales_longitud":"-58.41368","incremento_pct":"12.55"},{"comercio_razon_social":"COTO CENTRO INTEGRAL DE COMERCIALIZACION S.A.","sucursales_nombre":"ACA VELEZ SARSFIELD","sucursales_latitud":"-34.64512","sucursales_longitud":"-58.38923","incremento_pct":"13.10"},{"comercio_razon_social":"COTO CENTRO INTEGRAL DE COMERCIALIZACION S.A.","sucursales_nombre":"ACASSUSO","sucursales_latitud":"-34.47436","sucursales_longitud":"-58.50185","incremento_pct":"13.10"},{"comercio_razon_social":"COTO CENTRO INTEGRAL DE COMERCIALIZACION S.A.","sucursales_nombre":"ALBARELLOS ","sucursales_latitud":"-34.4802448","sucursales_longitud":"-58.5056248","incremento_pct":"14.72"},{"comercio_razon_social":"COTO CENTRO INTEGRAL DE COMERCIALIZACION S.A.","sucursales_nombre":"ALBERDI ","sucursales_latitud":"-34.6281676","sucursales_longitud":"-58.453314","incremento_pct":"9.86"},{"comercio_razon_social":"COTO CENTRO INTEGRAL DE COMERCIALIZACION S.A.","sucursales_nombre":"ALDERETE","sucursales_latitud":"-38.950930","sucursales_longitud":"-68.030640","incremento_pct":"10.18"},{"comercio_razon_social":"COTO CENTRO INTEGRAL DE COMERCIALIZACION S.A.","sucursales_nombre":"ALLEN","sucursales_latitud":"-38.980550","sucursales_longitud":"-67.830110","incremento_pct":"14.29"},{"comercio_razon_social":"COTO CENTRO INTEGRAL DE COMERCIALIZACION S.A.","sucursales_nombre":"AMEGHINO","sucursales_latitud":"-34.850330","sucursales_longitud":"-62.466760","incremento_pct":"14.84"},{"comercio_razon_social":"COTO CENTRO INTEGRAL DE COMERCIALIZACION S.A.","sucursales_nombre":"AMENABAR ","sucursales_latitud":"-34.5628202","sucursales_longitud":"-58.4588525","incremento_pct":"11.22"},{"comercio_razon_social":"COTO CENTRO INTEGRAL DE COMERCIALIZACION S.A.","sucursales_nombre":"ASAMBLEA ","sucursales_latitud":"-34.6358296","sucursales_longitud":"-58.4415417","incremento_pct":"13.42"},{"comercio_razon_social":"COTO CENTRO INTEGRAL DE COMERCIALIZACION S.A.","sucursales_nombre":"AUTOSERV.3 TRELEW","sucursales_latitud":"-43.267990","sucursales_longitud":"-65.298390","incremento_pct":"9.66"},{"comercio_razon_social":"COTO CENTRO INTEGRAL DE COMERCIALIZACION S.A.","sucursales_nombre":"AUTOSERVICE 2 RIO GRANDE","sucursales_latitud":"-53.791950","sucursales_longitud":"-67.721140","incremento_pct":"12.26"},{"comercio_razon_social":"COTO CENTRO INTEGRAL DE COMERCIALIZACION S.A.","sucursales_nombre":"AUTOSERVICIO GRAL ROCA 2","sucursales_latitud":"-39.027470","sucursales_longitud":"-67.565730","incremento_pct":"13.42"},{"comercio_razon_social":"COTO CENTRO INTEGRAL DE COMERCIALIZACION S.A.","sucursales_nombre":"AUTOSERVICIO PTO.MADRYN","sucursales_latitud":"-42.767230","sucursales_longitud":"-65.042990","incremento_pct":"9.44"},{"comercio_razon_social":"COTO CENTRO INTEGRAL DE COMERCIALIZACION S.A.","sucursales_nombre":"AUTOSERVICIO R.GALLEGOS","sucursales_latitud":"-51.641370","sucursales_longitud":"-69.228800","incremento_pct":"11.20"},{"comercio_razon_social":"COTO CENTRO INTEGRAL DE COMERCIALIZACION S.A.","sucursales_nombre":"AUTOSERVICIO USHUAIA","sucursales_latitud":"-54.817910","sucursales_longitud":"-68.335060","incremento_pct":"10.69"},{"comercio_razon_social":"COTO CENTRO INTEGRAL DE COMERCIALIZACION S.A.","sucursales_nombre":"AV EL CANO ","sucursales_latitud":"-34.578357","sucursales_longitud":"-58.460232","incremento_pct":"11.38"},{"comercio_razon_social":"COTO CENTRO INTEGRAL DE COMERCIALIZACION S.A.","sucursales_nombre":"AV. LA PLATA ","sucursales_latitud":"-34.64267","sucursales_longitud":"-58.422711","incremento_pct":"12.45"},{"comercio_razon_social":"COTO CENTRO INTEGRAL DE COMERCIALIZACION S.A.","sucursales_nombre":"AV. LA PLATA ","sucursales_latitud":"-34.621309","sucursales_longitud":"-58.428189","incremento_pct":"19.21"},{"comercio_razon_social":"COTO CENTRO INTEGRAL DE COMERCIALIZACION S.A.","sucursales_nombre":"AV.DEL TRABAJO ","sucursales_latitud":"-34.6380873","sucursales_longitud":"-58.4525728","incremento_pct":"13.54"},{"comercio_razon_social":"COTO CENTRO INTEGRAL DE COMERCIALIZACION S.A.","sucursales_nombre":"AV.SAN MARTIN","sucursales_latitud":"-34.6048231","sucursales_longitud":"-58.4571361","incremento_pct":"13.10"},{"comercio_razon_social":"COTO CENTRO INTEGRAL DE COMERCIALIZACION S.A.","sucursales_nombre":"AVELLANEDA ","sucursales_latitud":"-34.6650066","sucursales_longitud":"-58.3623175","incremento_pct":"12.39"},{"comercio_razon_social":"COTO CENTRO INTEGRAL DE COMERCIALIZACION S.A.","sucursales_nombre":"AVELLANEDA ","sucursales_latitud":"-34.6290437","sucursales_longitud":"-58.481691","incremento_pct":"13.33"},{"comercio_razon_social":"COTO CENTRO INTEGRAL DE COMERCIALIZACION S.A.","sucursales_nombre":"AZUL","sucursales_latitud":"-36.783740","sucursales_longitud":"-59.852910","incremento_pct":"6.66"},{"comercio_razon_social":"COTO CENTRO INTEGRAL DE COMERCIALIZACION S.A.","sucursales_nombre":"Abasto Shopping","sucursales_latitud":"-34.6026230","sucursales_longitud":"-58.4110080","incremento_pct":"10.15"},{"comercio_razon_social":"COTO CENTRO INTEGRAL DE COMERCIALIZACION S.A.","sucursales_nombre":"Adrogué.","sucursales_latitud":"-34.7993","sucursales_longitud":"-58.4053","incremento_pct":"12.26"},{"comercio_razon_social":"COTO CENTRO INTEGRAL DE COMERCIALIZACION S.A.","sucursales_nombre":"Agapantus.Balcarce","sucursales_latitud":"-37.848297","sucursales_longitud":"-58.258285","incremento_pct":"13.54"},{"comercio_razon_social":"COTO CENTRO INTEGRAL DE COMERCIALIZACION S.A.","sucursales_nombre":"Alberti.","sucursales_latitud":"-38.0072","sucursales_longitud":"-57.5514","incremento_pct":"11.80"},{"comercio_razon_social":"COTO CENTRO INTEGRAL DE COMERCIALIZACION S.A.","sucursales_nombre":"Alem","sucursales_latitud":"-38.68393932708354","sucursales_longitud":"-62.29150968720205","incremento_pct":"14.55"},{"comercio_razon_social":"COTO CENTRO INTEGRAL DE COMERCIALIZACION S.A.","sucursales_nombre":"Allen II","sucursales_latitud":"-38.98309546319121","sucursales_longitud":"-67.83118271836429","incremento_pct":"12.27"},{"comercio_razon_social":"COTO CENTRO INTEGRAL DE COMERCIALIZACION S.A.","sucursales_nombre":"Allen III","sucursales_latitud":"-38.975638398537015","sucursales_longitud":"-67.83520889352076","incremento_pct":"9.26"},{"comercio_razon_social":"COTO CENTRO INTEGRAL DE COMERCIALIZACION S.A.","sucursales_nombre":"Almagro","sucursales_latitud":"-34.6033211","sucursales_longitud":"-58.4193429","incremento_pct":"13.10"},{"comercio_razon_social":"COTO CENTRO INTEGRAL DE COMERCIALIZACION S.A.","sucursales_nombre":"Alta Gracia","sucursales_latitud":"-31.6576661","sucursales_longitud":"-64.4346239","incremento_pct":"9.44"},{"comercio_razon_social":"COTO CENTRO INTEGRAL DE COMERCIALIZACION S.A.","sucursales_nombre":"Alto Palermo Shopping","sucursales_latitud":"-34.5883150","sucursales_longitud":"-58.4106910","incremento_pct":"10.71"},{"comercio_razon_social":"COTO CENTRO INTEGRAL DE COMERCIALIZACION S.A.","sucursales_nombre":"Andacollo","sucursales_latitud":"-37.178799243985814","sucursales_longitud":"-70.6675814688424","incremento_pct":"14.84"},{"comercio_razon_social":"COTO CENTRO INTEGRAL DE COMERCIALIZACION S.A.","sucursales_nombre":"Arcos.","sucursales_latitud":"-34.5622","sucursales_longitud":"-58.4546","incremento_pct":"12.86"},{"comercio_razon_social":"COTO CENTRO INTEGRAL DE COMERCIALIZACION S.A.","sucursales_nombre":"Autoservicio Patricios","sucursales_latitud":"-34.63372","sucursales_longitud":"-58.37007","incremento_pct":"10.52"},{"comercio_razon_social":"COTO CENTRO INTEGRAL DE COMERCIALIZACION S.A.","sucursales_nombre":"Av. Corrientes","sucursales_latitud":"-34.603902","sucursales_longitud":"-58.383077","incremento_pct":"7.22"},{"comercio_razon_social":"COTO CENTRO INTEGRAL DE COMERCIALIZACION S.A.","sucursales_nombre":"Av. Córdoba 1439","sucursales_latitud":"-34.599262","sucursales_longitud":"-58.387552","incremento_pct":"10.23"},{"comercio_razon_social":"COTO CENTRO INTEGRAL DE COMERCIALIZACION S.A.","sucursales_nombre":"Av. Santa Fe 1954","sucursales_latitud":"-34.595813","sucursales_longitud":"-58.395425","incremento_pct":"12.70"},{"comercio_razon_social":"COTO CENTRO INTEGRAL DE COMERCIALIZACION S.A.","sucursales_nombre":"Avellaneda II","sucursales_latitud":"-34.661465","sucursales_longitud":"-58.368212","incremento_pct":"12.39"},{"comercio_razon_social":"COTO CENTRO INTEGRAL DE COMERCIALIZACION S.A.","sucursales_nombre":"BAHIA BLANCA","sucursales_latitud":"-38.959340","sucursales_longitud":"-68.050820","incremento_pct":"12.45"},{"comercio_razon_social":"COTO CENTRO INTEGRAL DE COMERCIALIZACION S.A.","sucursales_nombre":"BAHIA BLANCA II","sucursales_latitud":"-38.7266187","sucursales_longitud":"-62.2756371","incremento_pct":"12.96"},{"comercio_razon_social":"COTO CENTRO INTEGRAL DE COMERCIALIZACION S.A.","sucursales_nombre":"BARILOCHE 4","sucursales_latitud":"-41.137980","sucursales_longitud":"-71.298460","incremento_pct":"12.55"},{"comercio_razon_social":"COTO CENTRO INTEGRAL DE COMERCIALIZACION S.A.","sucursales_nombre":"BARILOCHE 5","sucursales_latitud":"-41.101500","sucursales_longitud":"-71.444590","incremento_pct":"15.39"},{"comercio_razon_social":"COTO CENTRO INTEGRAL DE COMERCIALIZACION S.A.","sucursales_nombre":"BARRACAS","sucursales_latitud":"-34.6320834","sucursales_longitud":"-58.3760678","incremento_pct":"9.03"},{"comercio_razon_social":"COTO CENTRO INTEGRAL DE COMERCIALIZACION S.A.","sucursales_nombre":"BARRIO 1008","sucursales_latitud":"-45.882880","sucursales_longitud":"-67.538800","incremento_pct":"13.94"},{"comercio_razon_social":"COTO CENTRO INTEGRAL DE COMERCIALIZACION S.A.","sucursales_nombre":"BEIRO","sucursales_latitud":"-34.61814","sucursales_longitud":"-58.53020","incremento_pct":"14.70"},{"comercio_razon_social":"COTO CENTRO INTEGRAL DE COMERCIALIZACION S.A.","sucursales_nombre":"BELGRANO 1","sucursales_latitud":"-38.950450","sucursales_longitud":"-68.111470","incremento_pct":"11.84"},{"comercio_razon_social":"COTO CENTRO INTEGRAL DE COMERCIALIZACION S.A.","sucursales_nombre":"BELLA VISTA ","sucursales_latitud":"-34.5715475","sucursales_longitud":"-58.6833252","incremento_pct":"14.89"},{"comercio_razon_social":"COTO CENTRO INTEGRAL DE COMERCIALIZACION S.A.","sucursales_nombre":"BERNAL ","sucursales_latitud":"-34.719142","sucursales_longitud":"-58.2913273","incremento_pct":"15.94"},{"comercio_razon_social":"COTO CENTRO INTEGRAL DE COMERCIALIZACION S.A.","sucursales_nombre":"BOEDO ","sucursales_latitud":"-34.6221132","sucursales_longitud":"-58.4164336","incremento_pct":"11.20"},{"comercio_razon_social":"COTO CENTRO INTEGRAL DE COMERCIALIZACION S.A.","sucursales_nombre":"BOTANICO ","sucursales_latitud":"-34.5847845","sucursales_longitud":"-58.4165247","incremento_pct":"8.97"},{"comercio_razon_social":"COTO CENTRO INTEGRAL DE COMERCIALIZACION S.A.","sucursales_nombre":"BRAGADO","sucursales_latitud":"-35.119830","sucursales_longitud":"-60.480450","incremento_pct":"12.19"},{"comercio_razon_social":"COTO CENTRO INTEGRAL DE COMERCIALIZACION S.A.","sucursales_nombre":"Bahía Blanca","sucursales_latitud":"-38.7226280","sucursales_longitud":"-62.2671916","incremento_pct":"11.80"},{"comercio_razon_social":"COTO CENTRO INTEGRAL DE COMERCIALIZACION S.A.","sucursales_nombre":"Balcarce","sucursales_latitud":"-37.8494919","sucursales_longitud":"-58.261301","incremento_pct":"12.54"},{"comercio_razon_social":"COTO CENTRO INTEGRAL DE COMERCIALIZACION S.A.","sucursales_nombre":"Banfield","sucursales_latitud":"-34.748145","sucursales_longitud":"-58.411227","incremento_pct":"12.96"},{"comercio_razon_social":"COTO CENTRO INTEGRAL DE COMERCIALIZACION S.A.","sucursales_nombre":"Bariloche","sucursales_latitud":"-41.1370934","sucursales_longitud":"-71.2974950","incremento_pct":"12.70"},{"comercio_razon_social":"COTO CENTRO INTEGRAL DE COMERCIALIZACION S.A.","sucursales_nombre":"Bariloche","sucursales_latitud":"-41.136201","sucursales_longitud":"-71.296792","incremento_pct":"14.70"},{"comercio_razon_social":"COTO CENTRO INTEGRAL DE COMERCIALIZACION S.A.","sucursales_nombre":"Belgrano 2","sucursales_latitud":"-34.5632570","sucursales_longitud":"-58.4556360","incremento_pct":"9.86"},{"comercio_razon_social":"COTO CENTRO INTEGRAL DE COMERCIALIZACION S.A.","sucursales_nombre":"Bella Vista.","sucursales_latitud":"-34.5608","sucursales_longitud":"-58.6785","incremento_pct":"14.39"},{"comercio_razon_social":"COTO CENTRO INTEGRAL DE COMERCIALIZACION S.A.","sucursales_nombre":"Benito Juarez","sucursales_latitud":"-37.67561636653722","sucursales_longitud":"-59.805969035720864","incremento_pct":"13.54"},{"comercio_razon_social":"COTO CENTRO INTEGRAL DE COMERCIALIZACION S.A.","sucursales_nombre":"Berazategui","sucursales_latitud":"-34.7621445","sucursales_longitud":"-58.2098571","incremento_pct":"14.24"},{"comercio_razon_social":"COTO CENTRO INTEGRAL DE COMERCIALIZACION S.A.","sucursales_nombre":"Bicentenario                                                ","sucursales_latitud":"-40.798007","sucursales_longitud":"-62.969036","incremento_pct":"13.10"},{"comercio_razon_social":"COTO CENTRO INTEGRAL DE COMERCIALIZACION S.A.","sucursales_nombre":"Bolivar","sucursales_latitud":"-36.23153688864939","sucursales_longitud":"-61.11475968369632","incremento_pct":"7.57"},{"comercio_razon_social":"COTO CENTRO INTEGRAL DE COMERCIALIZACION S.A.","sucursales_nombre":"Bulnes.","sucursales_latitud":"-34.5992","sucursales_longitud":"-58.4199","incremento_pct":"12.54"},{"comercio_razon_social":"COTO CENTRO INTEGRAL DE COMERCIALIZACION S.A.","sucursales_nombre":"B° San Roque","sucursales_latitud":"-38.7022","sucursales_longitud":"-62.29160000000002","incremento_pct":"14.23"},{"comercio_razon_social":"COTO CENTRO INTEGRAL DE COMERCIALIZACION S.A.","sucursales_nombre":"C. DE PATAGONES","sucursales_latitud":"-40.799190","sucursales_longitud":"-62.978050","incremento_pct":"14.83"},{"comercio_razon_social":"COTO CENTRO INTEGRAL DE COMERCIALIZACION S.A.","sucursales_nombre":"C.D.EZEIZA","sucursales_latitud":"-34.8537658","sucursales_longitud":"-58.5235769","incremento_pct":"15.25"},{"comercio_razon_social":"COTO CENTRO INTEGRAL DE COMERCIALIZACION S.A.","sucursales_nombre":"CABILDO","sucursales_latitud":"-34.54595","sucursales_longitud":"-58.47089","incremento_pct":"13.29"},{"comercio_razon_social":"COTO CENTRO INTEGRAL DE COMERCIALIZACION S.A.","sucursales_nombre":"CABILDO ","sucursales_latitud":"-34.5713409","sucursales_longitud":"-58.4420995","incremento_pct":"9.44"},{"comercio_razon_social":"COTO CENTRO INTEGRAL DE COMERCIALIZACION S.A.","sucursales_nombre":"CABILDO ","sucursales_latitud":"-34.5458941","sucursales_longitud":"-58.4705622","incremento_pct":"14.21"},{"comercio_razon_social":"COTO CENTRO INTEGRAL DE COMERCIALIZACION S.A.","sucursales_nombre":"CAMPANA ","sucursales_latitud":"-34.1659506","sucursales_longitud":"-58.9611328","incremento_pct":"14.84"},{"comercio_razon_social":"COTO CENTRO INTEGRAL DE COMERCIALIZACION S.A.","sucursales_nombre":"CARLOS CASARES","sucursales_latitud":"-35.624580","sucursales_longitud":"-61.366430","incremento_pct":"14.20"},{"comercio_razon_social":"COTO CENTRO INTEGRAL DE COMERCIALIZACION S.A.","sucursales_nombre":"CASTELAR ","sucursales_latitud":"-34.640349","sucursales_longitud":"-58.655782","incremento_pct":"10.23"},{"comercio_razon_social":"COTO CENTRO INTEGRAL DE COMERCIALIZACION S.A.","sucursales_nombre":"CASTRO BARROS ","sucursales_latitud":"-34.6118491","sucursales_longitud":"-58.4209021","incremento_pct":"12.55"},{"comercio_razon_social":"COTO CENTRO INTEGRAL DE COMERCIALIZACION S.A.","sucursales_nombre":"CATRIEL","sucursales_latitud":"-37.884350","sucursales_longitud":"-67.798860","incremento_pct":"8.66"},{"comercio_razon_social":"COTO CENTRO INTEGRAL DE COMERCIALIZACION S.A.","sucursales_nombre":"CERVINO ","sucursales_latitud":"-34.580229","sucursales_longitud":"-58.408608","incremento_pct":"12.21"},{"comercio_razon_social":"COTO CENTRO INTEGRAL DE COMERCIALIZACION S.A.","sucursales_nombre":"CHACABUCO","sucursales_latitud":"-34.643660","sucursales_longitud":"-60.470900","incremento_pct":"13.33"},{"comercio_razon_social":"COTO CENTRO INTEGRAL DE COMERCIALIZACION S.A.","sucursales_nombre":"CHARCAS ","sucursales_latitud":"-34.5924706","sucursales_longitud":"-58.4111036","incremento_pct":"11.54"},{"comercio_razon_social":"COTO CENTRO INTEGRAL DE COMERCIALIZACION S.A.","sucursales_nombre":"CHIVILCOY","sucursales_latitud":"-34.895400","sucursales_longitud":"-60.017500","incremento_pct":"13.12"},{"comercio_razon_social":"COTO CENTRO INTEGRAL DE COMERCIALIZACION S.A.","sucursales_nombre":"CIPOLLETTI","sucursales_latitud":"-38.933690","sucursales_longitud":"-68.001030","incremento_pct":"13.29"},{"comercio_razon_social":"COTO CENTRO INTEGRAL DE COMERCIALIZACION S.A.","sucursales_nombre":"CIPOLLETTI 2","sucursales_latitud":"-38.939820","sucursales_longitud":"-67.995300","incremento_pct":"10.52"},{"comercio_razon_social":"COTO CENTRO INTEGRAL DE COMERCIALIZACION S.A.","sucursales_nombre":"CIPOLLETTI 3","sucursales_latitud":"-38.926630","sucursales_longitud":"-67.990510","incremento_pct":"14.70"},{"comercio_razon_social":"COTO CENTRO INTEGRAL DE COMERCIALIZACION S.A.","sucursales_nombre":"CIUDADELA ","sucursales_latitud":"-34.6287238","sucursales_longitud":"-58.5488933","incremento_pct":"8.01"},{"comercio_razon_social":"COTO CENTRO INTEGRAL DE COMERCIALIZACION S.A.","sucursales_nombre":"CONSTITUCION ","sucursales_latitud":"-34.626433","sucursales_longitud":"-58.382215","incremento_pct":"12.54"},{"comercio_razon_social":"COTO CENTRO INTEGRAL DE COMERCIALIZACION S.A.","sucursales_nombre":"Caballito","sucursales_latitud":"-34.611087","sucursales_longitud":"-58.460584","incremento_pct":"9.33"},{"comercio_razon_social":"COTO CENTRO INTEGRAL DE COMERCIALIZACION S.A.","sucursales_nombre":"Caleta Olivia","sucursales_latitud":"-46.444906","sucursales_longitud":"-67.533789","incremento_pct":"10.56"},{"comercio_razon_social":"COTO CENTRO INTEGRAL DE COMERCIALIZACION S.A.","sucursales_nombre":"Campana","sucursales_latitud":"-34.1612890","sucursales_longitud":"-58.9591250","incremento_pct":"15.39"},{"comercio_razon_social":"COTO CENTRO INTEGRAL DE COMERCIALIZACION S.A.","sucursales_nombre":"Campana Centro","sucursales_latitud":"-34.162738","sucursales_longitud":"-58.965513","incremento_pct":"10.21"},{"comercio_razon_social":"COTO CENTRO INTEGRAL DE COMERCIALIZACION S.A.","sucursales_nombre":"Carlos Casares","sucursales_latitud":"-35.6260526","sucursales_longitud":"-61.3658627","incremento_pct":"14.24"},{"comercio_razon_social":"COTO CENTRO INTEGRAL DE COMERCIALIZACION S.A.","sucursales_nombre":"Carlos Paz","sucursales_latitud":"-31.4200500","sucursales_longitud":"-64.4978230","incremento_pct":"15.15"},{"comercio_razon_social":"COTO CENTRO INTEGRAL DE COMERCIALIZACION S.A.","sucursales_nombre":"Castelar Sur.","sucursales_latitud":"-34.6561","sucursales_longitud":"-58.6519","incremento_pct":"11.28"},{"comercio_razon_social":"COTO CENTRO INTEGRAL DE COMERCIALIZACION S.A.","sucursales_nombre":"Catamarca","sucursales_latitud":"-28.477093","sucursales_longitud":"-65.778283","incremento_pct":"8.06"},{"comercio_razon_social":"COTO CENTRO INTEGRAL DE COMERCIALIZACION S.A.","sucursales_nombre":"Catamarca","sucursales_latitud":"-28.4684909","sucursales_longitud":"-65.7766606","incremento_pct":"14.36"},{"comercio_razon_social":"COTO CENTRO INTEGRAL DE COMERCIALIZACION S.A.","sucursales_nombre":"Catriel","sucursales_latitud":"-37.88332175222674","sucursales_longitud":"-67.79881954193115","incremento_pct":"9.93"},{"comercio_razon_social":"COTO CENTRO INTEGRAL DE COMERCIALIZACION S.A.","sucursales_nombre":"Catriel","sucursales_latitud":"-37.8826513","sucursales_longitud":"-67.8007128","incremento_pct":"10.71"},{"comercio_razon_social":"COTO CENTRO INTEGRAL DE COMERCIALIZACION S.A.","sucursales_nombre":"Centenario 1","sucursales_latitud":"-38.82481520164966","sucursales_longitud":"-68.13929164396541","incremento_pct":"14.83"},{"comercio_razon_social":"COTO CENTRO INTEGRAL DE COMERCIALIZACION S.A.","sucursales_nombre":"Centenario 2","sucursales_latitud":"-38.82867754894124","sucursales_longitud":"-68.12996515596751","incremento_pct":"16.74"},{"comercio_razon_social":"COTO CENTRO INTEGRAL DE COMERCIALIZACION S.A.","sucursales_nombre":"Centenario 6","sucursales_latitud":"-38.829058721432936","sucursales_longitud":"-68.13936831736544","incremento_pct":"15.94"},{"comercio_razon_social":"COTO CENTRO INTEGRAL DE COMERCIALIZACION S.A.","sucursales_nombre":"Centenario 7","sucursales_latitud":"-38.827336073551486","sucursales_longitud":"-68.12438079712592","incremento_pct":"10.64"},{"comercio_razon_social":"COTO CENTRO INTEGRAL DE COMERCIALIZACION S.A.","sucursales_nombre":"Chaco","sucursales_latitud":"-27.4514458","sucursales_longitud":"-58.9894067","incremento_pct":"12.27"},{"comercio_razon_social":"COTO CENTRO INTEGRAL DE COMERCIALIZACION S.A.","sucursales_nombre":"Chilavert","sucursales_latitud":"-34.541198","sucursales_longitud":"-58.563095","incremento_pct":"8.97"},{"comercio_razon_social":"COTO CENTRO INTEGRAL DE COMERCIALIZACION S.A.","sucursales_nombre":"Chimpay","sucursales_latitud":"-39.16459357228958","sucursales_longitud":"-66.14577341097174","incremento_pct":"10.28"},{"comercio_razon_social":"COTO CENTRO INTEGRAL DE COMERCIALIZACION S.A.","sucursales_nombre":"Chivilcoy","sucursales_latitud":"-34.8949760","sucursales_longitud":"-60.0186460","incremento_pct":"13.29"},{"comercio_razon_social":"COTO CENTRO INTEGRAL DE COMERCIALIZACION S.A.","sucursales_nombre":"Choele Choel I","sucursales_latitud":"-39.29197676335891","sucursales_longitud":"-65.66069615053863","incremento_pct":"13.53"},{"comercio_razon_social":"COTO CENTRO INTEGRAL DE COMERCIALIZACION S.A.","sucursales_nombre":"Choele Choel II","sucursales_latitud":"-39.29264933198452","sucursales_longitud":"-65.65980029272765","incremento_pct":"12.39"},{"comercio_razon_social":"COTO CENTRO INTEGRAL DE COMERCIALIZACION S.A.","sucursales_nombre":"Chos Malal I","sucursales_latitud":"-37.37714668362251","sucursales_longitud":"-70.27291075070644","incremento_pct":"8.39"},{"comercio_razon_social":"COTO CENTRO INTEGRAL DE COMERCIALIZACION S.A.","sucursales_nombre":"Cinco Saltos","sucursales_latitud":"-38.8260671","sucursales_longitud":"-68.0705055","incremento_pct":"13.53"},{"comercio_razon_social":"COTO CENTRO INTEGRAL DE COMERCIALIZACION S.A.","sucursales_nombre":"Cinco Saltos","sucursales_latitud":"-38.824017331886154","sucursales_longitud":"-68.06949687170714","incremento_pct":"12.19"},{"comercio_razon_social":"COTO CENTRO INTEGRAL DE COMERCIALIZACION S.A.","sucursales_nombre":"Cinco Saltos II","sucursales_latitud":"-38.82372106855116","sucursales_longitud":"-68.06926095494418","incremento_pct":"12.27"},{"comercio_razon_social":"COTO CENTRO INTEGRAL DE COMERCIALIZACION S.A.","sucursales_nombre":"Cinco Saltos III","sucursales_latitud":"-38.828791217891784","sucursales_longitud":"-68.0672441131901","incremento_pct":"12.70"},{"comercio_razon_social":"COTO CENTRO INTEGRAL DE COMERCIALIZACION S.A.","sucursales_nombre":"Cipolletti","sucursales_latitud":"-38.9398497","sucursales_longitud":"-67.9997146","incremento_pct":"13.86"},{"comercio_razon_social":"COTO CENTRO INTEGRAL DE COMERCIALIZACION S.A.","sucursales_nombre":"Cipolletti I","sucursales_latitud":"-38.93591736352952","sucursales_longitud":"-67.98749637770385","incremento_pct":"13.86"},{"comercio_razon_social":"COTO CENTRO INTEGRAL DE COMERCIALIZACION S.A.","sucursales_nombre":"Cipolletti II","sucursales_latitud":"-38.929159387799636","sucursales_longitud":"-67.99884250762261","incremento_pct":"15.55"},{"comercio_razon_social":"COTO CENTRO INTEGRAL DE COMERCIALIZACION S.A.","sucursales_nombre":"City Bell.","sucursales_latitud":"-34.8819","sucursales_longitud":"-58.0544","incremento_pct":"14.34"},{"comercio_razon_social":"COTO CENTRO INTEGRAL DE COMERCIALIZACION S.A.","sucursales_nombre":"Colón","sucursales_latitud":"-32.2251728","sucursales_longitud":"-58.1469513","incremento_pct":"10.69"},{"comercio_razon_social":"COTO CENTRO INTEGRAL DE COMERCIALIZACION S.A.","sucursales_nombre":"Comodoro Rivadavia","sucursales_latitud":"-45.8610687","sucursales_longitud":"-67.4791336","incremento_pct":"14.55"},{"comercio_razon_social":"COTO CENTRO INTEGRAL DE COMERCIALIZACION S.A.","sucursales_nombre":"Concepcion Del Uruguay","sucursales_latitud":"-32.4834304","sucursales_longitud":"-58.2343787","incremento_pct":"11.22"},{"comercio_razon_social":"COTO CENTRO INTEGRAL DE COMERCIALIZACION S.A.","sucursales_nombre":"Concordia","sucursales_latitud":"-31.3949130","sucursales_longitud":"-58.0171920","incremento_pct":"12.34"},{"comercio_razon_social":"COTO CENTRO INTEGRAL DE COMERCIALIZACION S.A.","sucursales_nombre":"Concordia","sucursales_latitud":"-31.3941351","sucursales_longitud":"-58.0190949","incremento_pct":"13.05"},{"comercio_razon_social":"COTO CENTRO INTEGRAL DE COMERCIALIZACION S.A.","sucursales_nombre":"Constitución.","sucursales_latitud":"-37.9600","sucursales_longitud":"-57.5668","incremento_pct":"12.19"},{"comercio_razon_social":"COTO CENTRO INTEGRAL DE COMERCIALIZACION S.A.","sucursales_nombre":"Cordoba","sucursales_latitud":"-38.0002989","sucursales_longitud":"-57.5500575","incremento_pct":"10.49"},{"comercio_razon_social":"COTO CENTRO INTEGRAL DE COMERCIALIZACION S.A.","sucursales_nombre":"Cordoba Nueva","sucursales_latitud":"-31.4116765","sucursales_longitud":"-64.1854750","incremento_pct":"12.71"},{"comercio_razon_social":"COTO CENTRO INTEGRAL DE COMERCIALIZACION S.A.","sucursales_nombre":"Coronel Suarez","sucursales_latitud":"-37.4593647","sucursales_longitud":"-61.9363907","incremento_pct":"9.66"},{"comercio_razon_social":"COTO CENTRO INTEGRAL DE COMERCIALIZACION S.A.","sucursales_nombre":"Corrientes","sucursales_latitud":"-27.477092","sucursales_longitud":"-58.815872","incremento_pct":"13.94"},{"comercio_razon_social":"COTO CENTRO INTEGRAL DE COMERCIALIZACION S.A.","sucursales_nombre":"Corrientes 1 - Junin","sucursales_latitud":"-27.467489","sucursales_longitud":"-58.836112","incremento_pct":"13.10"},{"comercio_razon_social":"COTO CENTRO INTEGRAL DE COMERCIALIZACION S.A.","sucursales_nombre":"Corrientes 2","sucursales_latitud":"-27.4675520","sucursales_longitud":"-58.8371154","incremento_pct":"14.89"},{"comercio_razon_social":"COTO CENTRO INTEGRAL DE COMERCIALIZACION S.A.","sucursales_nombre":"Corrientes Junin","sucursales_latitud":"-27.467798","sucursales_longitud":"-58.834021","incremento_pct":"14.55"},{"comercio_razon_social":"COTO CENTRO INTEGRAL DE COMERCIALIZACION S.A.","sucursales_nombre":"Curuzú Cuatiá","sucursales_latitud":"-29.790577","sucursales_longitud":"-58.054853","incremento_pct":"7.57"},{"comercio_razon_social":"COTO CENTRO INTEGRAL DE COMERCIALIZACION S.A.","sucursales_nombre":"Córdoba Jardín","sucursales_latitud":"-31.455534","sucursales_longitud":"-64.166095","incremento_pct":"14.23"},{"comercio_razon_social":"COTO CENTRO INTEGRAL DE COMERCIALIZACION S.A.","sucursales_nombre":"Córdoba Shopping.","sucursales_latitud":"-31.3802","sucursales_longitud":"-64.2147","incremento_pct":"9.86"},{"comercio_razon_social":"COTO CENTRO INTEGRAL DE COMERCIALIZACION S.A.","sucursales_nombre":"DIAZ VELEZ ","sucursales_latitud":"-34.6087141","sucursales_longitud":"-58.4309495","incremento_pct":"12.90"},{"comercio_razon_social":"COTO CENTRO INTEGRAL DE COMERCIALIZACION S.A.","sucursales_nombre":"DIRECTORIO ","sucursales_latitud":"-34.634479","sucursales_longitud":"-58.4640708","incremento_pct":"12.10"},{"comercio_razon_social":"COTO CENTRO INTEGRAL DE COMERCIALIZACION S.A.","sucursales_nombre":"DORREGO","sucursales_latitud":"-34.58487","sucursales_longitud":"-58.44470","incremento_pct":"15.94"},{"comercio_razon_social":"COTO CENTRO INTEGRAL DE COMERCIALIZACION S.A.","sucursales_nombre":"Daireaux","sucursales_latitud":"-36.6000153","sucursales_longitud":"-61.7502183","incremento_pct":"12.69"},{"comercio_razon_social":"COTO CENTRO INTEGRAL DE COMERCIALIZACION S.A.","sucursales_nombre":"EL BOLSON","sucursales_latitud":"-41.962760","sucursales_longitud":"-71.535240","incremento_pct":"10.79"},{"comercio_razon_social":"COTO CENTRO INTEGRAL DE COMERCIALIZACION S.A.","sucursales_nombre":"EL BOLSON 2","sucursales_latitud":"-41.971000","sucursales_longitud":"-71.531050","incremento_pct":"7.36"},{"comercio_razon_social":"COTO CENTRO INTEGRAL DE COMERCIALIZACION S.A.","sucursales_nombre":"EL CALAFATE","sucursales_latitud":"-50.337780","sucursales_longitud":"-72.261590","incremento_pct":"8.39"},{"comercio_razon_social":"COTO CENTRO INTEGRAL DE COMERCIALIZACION S.A.","sucursales_nombre":"ELCANO ","sucursales_latitud":"-34.571895","sucursales_longitud":"-58.458683","incremento_pct":"14.24"},{"comercio_razon_social":"COTO CENTRO INTEGRAL DE COMERCIALIZACION S.A.","sucursales_nombre":"EMILIO CASTRO ","sucursales_latitud":"-34.656142","sucursales_longitud":"-58.524475","incremento_pct":"12.69"},{"comercio_razon_social":"COTO CENTRO INTEGRAL DE COMERCIALIZACION S.A.","sucursales_nombre":"ESCOBAR","sucursales_latitud":"-34.349404","sucursales_longitud":"-58.799261","incremento_pct":"14.23"},{"comercio_razon_social":"COTO CENTRO INTEGRAL DE COMERCIALIZACION S.A.","sucursales_nombre":"ESCOBAR ","sucursales_latitud":"-34.3456017","sucursales_longitud":"-58.7928537","incremento_pct":"12.34"},{"comercio_razon_social":"COTO CENTRO INTEGRAL DE COMERCIALIZACION S.A.","sucursales_nombre":"ESQUEL 3","sucursales_latitud":"-42.914260","sucursales_longitud":"-71.298990","incremento_pct":"7.22"},{"comercio_razon_social":"COTO CENTRO INTEGRAL DE COMERCIALIZACION S.A.","sucursales_nombre":"EVA PERON ","sucursales_latitud":"-34.6561036","sucursales_longitud":"-58.4767969","incremento_pct":"12.94"},{"comercio_razon_social":"COTO CENTRO INTEGRAL DE COMERCIALIZACION S.A.","sucursales_nombre":"EZEIZA ","sucursales_latitud":"-34.8440028","sucursales_longitud":"-58.507952","incremento_pct":"7.22"},{"comercio_razon_social":"COTO CENTRO INTEGRAL DE COMERCIALIZACION S.A.","sucursales_nombre":"Eldorado","sucursales_latitud":"-26.408442","sucursales_longitud":"-54.604314","incremento_pct":"10.79"},{"comercio_razon_social":"COTO CENTRO INTEGRAL DE COMERCIALIZACION S.A.","sucursales_nombre":"Esmeralda.","sucursales_latitud":"-34.5918","sucursales_longitud":"-58.3793","incremento_pct":"13.05"},{"comercio_razon_social":"COTO CENTRO INTEGRAL DE COMERCIALIZACION S.A.","sucursales_nombre":"Esteco.","sucursales_latitud":"-24.7981","sucursales_longitud":"-65.4168","incremento_pct":"10.71"},{"comercio_razon_social":"COTO CENTRO INTEGRAL DE COMERCIALIZACION S.A.","sucursales_nombre":"Estrada","sucursales_latitud":"-37.9532482","sucursales_longitud":"-57.5532565","incremento_pct":"12.21"},{"comercio_razon_social":"COTO CENTRO INTEGRAL DE COMERCIALIZACION S.A.","sucursales_nombre":"FACTORY QUILMES","sucursales_latitud":"-34.759621","sucursales_longitud":"-58.2807983","incremento_pct":"10.28"},{"comercio_razon_social":"COTO CENTRO INTEGRAL DE COMERCIALIZACION S.A.","sucursales_nombre":"FILIAL SAN MARTIN","sucursales_latitud":"-45.861050","sucursales_longitud":"-67.475180","incremento_pct":"14.24"},{"comercio_razon_social":"COTO CENTRO INTEGRAL DE COMERCIALIZACION S.A.","sucursales_nombre":"FISHERTON ROSARIO ","sucursales_latitud":"-32.9298072","sucursales_longitud":"-60.7249756","incremento_pct":"10.64"},{"comercio_razon_social":"COTO CENTRO INTEGRAL DE COMERCIALIZACION S.A.","sucursales_nombre":"FLORIDA","sucursales_latitud":"-34.6046406","sucursales_longitud":"-58.3775124","incremento_pct":"14.29"},{"comercio_razon_social":"COTO CENTRO INTEGRAL DE COMERCIALIZACION S.A.","sucursales_nombre":"FLORIDA ","sucursales_latitud":"-34.533164","sucursales_longitud":"-58.5024536","incremento_pct":"12.86"},{"comercio_razon_social":"COTO CENTRO INTEGRAL DE COMERCIALIZACION S.A.","sucursales_nombre":"FRENCH ","sucursales_latitud":"-34.5907212","sucursales_longitud":"-58.399403","incremento_pct":"12.27"},{"comercio_razon_social":"COTO CENTRO INTEGRAL DE COMERCIALIZACION S.A.","sucursales_nombre":"Fernandez Oro II","sucursales_latitud":"-38.952648418329176","sucursales_longitud":"-67.92718434342532","incremento_pct":"12.71"},{"comercio_razon_social":"COTO CENTRO INTEGRAL DE COMERCIALIZACION S.A.","sucursales_nombre":"Florencio Varela","sucursales_latitud":"-34.779585","sucursales_longitud":"-58.279265","incremento_pct":"11.80"},{"comercio_razon_social":"COTO CENTRO INTEGRAL DE COMERCIALIZACION S.A.","sucursales_nombre":"Flores Mobile","sucursales_latitud":"-34.6269050","sucursales_longitud":"-58.4569000","incremento_pct":"11.74"},{"comercio_razon_social":"COTO CENTRO INTEGRAL DE COMERCIALIZACION S.A.","sucursales_nombre":"Flores Vip","sucursales_latitud":"-34.6272170","sucursales_longitud":"-58.4577980","incremento_pct":"16.74"},{"comercio_razon_social":"COTO CENTRO INTEGRAL DE COMERCIALIZACION S.A.","sucursales_nombre":"Formosa","sucursales_latitud":"-26.1822449","sucursales_longitud":"-58.1657752","incremento_pct":"14.70"},{"comercio_razon_social":"COTO CENTRO INTEGRAL DE COMERCIALIZACION S.A.","sucursales_nombre":"Formosa La Rural","sucursales_latitud":"-26.190381","sucursales_longitud":"-58.187564","incremento_pct":"13.33"},{"comercio_razon_social":"COTO CENTRO INTEGRAL DE COMERCIALIZACION S.A.","sucursales_nombre":"GALLEGOS 5","sucursales_latitud":"-51.615010","sucursales_longitud":"-69.227860","incremento_pct":"14.55"},{"comercio_razon_social":"COTO CENTRO INTEGRAL DE COMERCIALIZACION S.A.","sucursales_nombre":"GALLO ","sucursales_latitud":"-34.6056255","sucursales_longitud":"-58.4135635","incremento_pct":"16.66"},{"comercio_razon_social":"COTO CENTRO INTEGRAL DE COMERCIALIZACION S.A.","sucursales_nombre":"GARIN ","sucursales_latitud":"-34.4179366","sucursales_longitud":"-58.7255946","incremento_pct":"7.83"},{"comercio_razon_social":"COTO CENTRO INTEGRAL DE COMERCIALIZACION S.A.","sucursales_nombre":"GENERAL PICO","sucursales_latitud":"-35.655920","sucursales_longitud":"-63.757040","incremento_pct":"12.11"},{"comercio_razon_social":"COTO CENTRO INTEGRAL DE COMERCIALIZACION S.A.","sucursales_nombre":"GENERAL ROCA 3","sucursales_latitud":"-39.027930","sucursales_longitud":"-67.590070","incremento_pct":"10.16"},{"comercio_razon_social":"COTO CENTRO INTEGRAL DE COMERCIALIZACION S.A.","sucursales_nombre":"GEORGALOS ","sucursales_latitud":"-34.6204884","sucursales_longitud":"-58.4992502","incremento_pct":"11.34"},{"comercio_razon_social":"COTO CENTRO INTEGRAL DE COMERCIALIZACION S.A.","sucursales_nombre":"GOBERNADOR GREGORES","sucursales_latitud":"-48.750440","sucursales_longitud":"-70.247610","incremento_pct":"7.83"},{"comercio_razon_social":"COTO CENTRO INTEGRAL DE COMERCIALIZACION S.A.","sucursales_nombre":"Garay","sucursales_latitud":"-34.62693","sucursales_longitud":"-58.38303","incremento_pct":"10.79"},{"comercio_razon_social":"COTO CENTRO INTEGRAL DE COMERCIALIZACION S.A.","sucursales_nombre":"Gascón.","sucursales_latitud":"-34.6033","sucursales_longitud":"-58.4264","incremento_pct":"12.10"},{"comercio_razon_social":"COTO CENTRO INTEGRAL DE COMERCIALIZACION S.A.","sucursales_nombre":"General Roca","sucursales_latitud":"-39.030326","sucursales_longitud":"-67.573775","incremento_pct":"15.74"},{"comercio_razon_social":"COTO CENTRO INTEGRAL DE COMERCIALIZACION S.A.","sucursales_nombre":"General Roca","sucursales_latitud":"-39.0289802","sucursales_longitud":"-67.5782917","incremento_pct":"14.72"},{"comercio_razon_social":"COTO CENTRO INTEGRAL DE COMERCIALIZACION S.A.","sucursales_nombre":"General Roca","sucursales_latitud":"-38.9448310","sucursales_longitud":"-68.0520340","incremento_pct":"8.01"},{"comercio_razon_social":"COTO CENTRO INTEGRAL DE COMERCIALIZACION S.A.","sucursales_nombre":"Gesell Boulevard.","sucursales_latitud":"-37.2611","sucursales_longitud":"-56.9869","incremento_pct":"9.44"},{"comercio_razon_social":"COTO CENTRO INTEGRAL DE COMERCIALIZACION S.A.","sucursales_nombre":"Glew","sucursales_latitud":"-34.883091","sucursales_longitud":"-58.388230","incremento_pct":"10.69"},{"comercio_razon_social":"COTO CENTRO INTEGRAL DE COMERCIALIZACION S.A.","sucursales_nombre":"Gral. Pico I","sucursales_latitud":"-35.6598318","sucursales_longitud":"-63.7559761","incremento_pct":"12.54"},{"comercio_razon_social":"COTO CENTRO INTEGRAL DE COMERCIALIZACION S.A.","sucursales_nombre":"Gral. Roca I","sucursales_latitud":"-39.02770092079763","sucursales_longitud":"-67.58329921964105","incremento_pct":"9.86"},{"comercio_razon_social":"COTO CENTRO INTEGRAL DE COMERCIALIZACION S.A.","sucursales_nombre":"Gral. Roca II","sucursales_latitud":"-39.02938240761715","sucursales_longitud":"-67.56962531808313","incremento_pct":"10.58"},{"comercio_razon_social":"COTO CENTRO INTEGRAL DE COMERCIALIZACION S.A.","sucursales_nombre":"Gral. Villegas","sucursales_latitud":"-35.02964231976656","sucursales_longitud":"-63.01698911196581","incremento_pct":"11.89"},{"comercio_razon_social":"COTO CENTRO INTEGRAL DE COMERCIALIZACION S.A.","sucursales_nombre":"Grand Bourg","sucursales_latitud":"-34.4867880","sucursales_longitud":"-58.7258440","incremento_pct":"14.83"},{"comercio_razon_social":"COTO CENTRO INTEGRAL DE COMERCIALIZACION S.A.","sucursales_nombre":"Gualeguaychu","sucursales_latitud":"-33.0088104","sucursales_longitud":"-58.5194928","incremento_pct":"12.10"},{"comercio_razon_social":"COTO CENTRO INTEGRAL DE COMERCIALIZACION S.A.","sucursales_nombre":"Guido","sucursales_latitud":"-37.9879093","sucursales_longitud":"-57.5586834","incremento_pct":"14.23"},{"comercio_razon_social":"COTO CENTRO INTEGRAL DE COMERCIALIZACION S.A.","sucursales_nombre":"H.YRIGOYEN ","sucursales_latitud":"-34.614634","sucursales_longitud":"-58.420517","incremento_pct":"10.79"},