[{"id_comercio":"2","comercio_razon_social":"S.A. IMP. Y EXP. DE LA PATAGONIA","id_sucursal":"4","sucursales_nombre":"BARILOCHE 3","sucursales_localidad":"San Carlos de Bariloche","sucursales_latitud":"-41.131390","sucursales_longitud":"-71.361240","promedio_incremento_pct":"10.92"},{"id_comercio":"2","comercio_razon_social":"S.A. IMP. Y EXP. DE LA PATAGONIA","id_sucursal":"6","sucursales_nombre":"BAHIA BLANCA","sucursales_localidad":"Neuquen","sucursales_latitud":"-38.959340","sucursales_longitud":"-68.050820","promedio_incremento_pct":"8.37"},{"id_comercio":"2","comercio_razon_social":"S.A. IMP. Y EXP. DE LA PATAGONIA","id_sucursal":"7","sucursales_nombre":"CIPOLLETTI","sucursales_localidad":"Cipolletti","sucursales_latitud":"-38.933690","sucursales_longitud":"-68.001030","promedio_incremento_pct":"8.28"},{"id_comercio":"2","comercio_razon_social":"S.A. IMP. Y EXP. DE LA PATAGONIA","id_sucursal":"8","sucursales_nombre":"BARILOCHE","sucursales_localidad":"San Carlos de Bariloche","sucursales_latitud":"-41.135450","sucursales_longitud":"-71.308740","promedio_incremento_pct":"10.32"},{"id_comercio":"2","comercio_razon_social":"S.A. IMP. Y EXP. DE LA PATAGONIA","id_sucursal":"9","sucursales_nombre":"BARILOCHE 2","sucursales_localidad":"San Carlos de Bariloche","sucursales_latitud":"-41.140000","sucursales_longitud":"-71.301680","promedio_incremento_pct":"26.07"},{"id_comercio":"2","comercio_razon_social":"S.A. IMP. Y EXP. DE LA PATAGONIA","id_sucursal":"12","sucursales_nombre":"TRELEW","sucursales_localidad":"Trelew","sucursales_latitud":"-43.247020","sucursales_longitud":"-65.310710","promedio_incremento_pct":"10.23"},{"id_comercio":"2","comercio_razon_social":"S.A. IMP. Y EXP. DE LA PATAGONIA","id_sucursal":"13","sucursales_nombre":"RAWSON","sucursales_localidad":"Rawson","sucursales_latitud":"-43.302540","sucursales_longitud":"-65.104400","promedio_incremento_pct":"10.44"},{"id_comercio":"2","comercio_razon_social":"S.A. IMP. Y EXP. DE LA PATAGONIA","id_sucursal":"14","sucursales_nombre":"PUERTO MADRYN","sucursales_localidad":"Puerto Madryn","sucursales_latitud":"-42.764220","sucursales_longitud":"-65.036230","promedio_incremento_pct":"9.22"},{"id_comercio":"2","comercio_razon_social":"S.A. IMP. Y EXP. DE LA PATAGONIA","id_sucursal":"15","sucursales_nombre":"ESQUEL","sucursales_localidad":"Esquel","sucursales_latitud":"-42.914300","sucursales_longitud":"-71.322760","promedio_incremento_pct":"14.45"},{"id_comercio":"2","comercio_razon_social":"S.A. IMP. Y EXP. DE LA PATAGONIA","id_sucursal":"16","sucursales_nombre":"TRELEW FONTANA","sucursales_localidad":"Trelew","sucursales_latitud":"-43.262120","sucursales_longitud":"-65.293490","promedio_incremento_pct":"9.79"},{"id_comercio":"2","comercio_razon_social":"S.A. IMP. Y EXP. DE LA PATAGONIA","id_sucursal":"21","sucursales_nombre":"COMODORO RIVADAVIA","sucursales_localidad":"Comodoro Rivadavia","sucursales_latitud":"-45.868700","sucursales_longitud":"-67.502270","promedio_incremento_pct":"9.37"},{"id_comercio":"2","comercio_razon_social":"S.A. IMP. Y EXP. DE LA PATAGONIA","id_sucursal":"22","sucursales_nombre":"FILIAL SAN MARTIN","sucursales_localidad":"Comodoro Rivadavia","sucursales_latitud":"-45.861050","sucursales_longitud":"-67.475180","promedio_incremento_pct":"9.77"},{"id_comercio":"2","comercio_razon_social":"S.A. IMP. Y EXP. DE LA PATAGONIA","id_sucursal":"23","sucursales_nombre":"GRAL.MOSCONI KM.3","sucursales_localidad":"Comodoro Rivadavia","sucursales_latitud":"-45.836750","sucursales_longitud":"-67.478320","promedio_incremento_pct":"10.05"},{"id_comercio":"2","comercio_razon_social":"S.A. IMP. Y EXP. DE LA PATAGONIA","id_sucursal":"24","sucursales_nombre":"A.SERV.N 1 COM.RIVADAVIA","sucursales_localidad":"Comodoro Rivadavia","sucursales_latitud":"-45.860430","sucursales_longitud":"-67.498840","promedio_incremento_pct":"10.86"},{"id_comercio":"2","comercio_razon_social":"S.A. IMP. Y EXP. DE LA PATAGONIA","id_sucursal":"25","sucursales_nombre":"A.SERV.N 2 COM.RIVADAVIA","sucursales_localidad":"Comodoro Rivadavia","sucursales_latitud":"-45.875190","sucursales_longitud":"-67.519110","promedio_incremento_pct":"10.89"},{"id_comercio":"2","comercio_razon_social":"S.A. IMP. Y EXP. DE LA PATAGONIA","id_sucursal":"31","sucursales_nombre":"CALETA OLIVIA","sucursales_localidad":"Caleta Olivia","sucursales_latitud":"-46.447890","sucursales_longitud":"-67.520060","promedio_incremento_pct":"10.42"},{"id_comercio":"2","comercio_razon_social":"S.A. IMP. Y EXP. DE LA PATAGONIA","id_sucursal":"32","sucursales_nombre":"CALETA OLIVIA 2","sucursales_localidad":"Caleta Olivia","sucursales_latitud":"-46.444660","sucursales_longitud":"-67.528540","promedio_incremento_pct":"11.32"},{"id_comercio":"2","comercio_razon_social":"S.A. IMP. Y EXP. DE LA PATAGONIA","id_sucursal":"33","sucursales_nombre":"RIO GALLEGOS","sucursales_localidad":"Rio Gallegos","sucursales_latitud":"-51.620950","sucursales_longitud":"-69.216310","promedio_incremento_pct":"9.94"},{"id_comercio":"2","comercio_razon_social":"S.A. IMP. Y EXP. DE LA PATAGONIA","id_sucursal":"38","sucursales_nombre":"USHUAIA","sucursales_localidad":"Ushuaia","sucursales_latitud":"-54.798090","sucursales_longitud":"-68.278780","promedio_incremento_pct":"5.53"},{"id_comercio":"2","comercio_razon_social":"S.A. IMP. Y EXP. DE LA PATAGONIA","id_sucursal":"42","sucursales_nombre":"AUTOSERVICIO GRAL ROCA 2","sucursales_localidad":"General Roca","sucursales_latitud":"-39.027470","sucursales_longitud":"-67.565730","promedio_incremento_pct":"8.48"},{"id_comercio":"2","comercio_razon_social":"S.A. IMP. Y EXP. DE LA PATAGONIA","id_sucursal":"43","sucursales_nombre":"AUTOSERVICIO R.GALLEGOS","sucursales_localidad":"Rio Gallegos","sucursales_latitud":"-51.641370","sucursales_longitud":"-69.228800","promedio_incremento_pct":"10.85"},{"id_comercio":"2","comercio_razon_social":"S.A. IMP. Y EXP. DE LA PATAGONIA","id_sucursal":"44","sucursales_nombre":"AUTOSERV.3 TRELEW","sucursales_localidad":"Trelew","sucursales_latitud":"-43.267990","sucursales_longitud":"-65.298390","promedio_incremento_pct":"10.29"},{"id_comercio":"2","comercio_razon_social":"S.A. IMP. Y EXP. DE LA PATAGONIA","id_sucursal":"45","sucursales_nombre":"AUTOSERVICIO PTO.MADRYN","sucursales_localidad":"Puerto Madryn","sucursales_latitud":"-42.767230","sucursales_longitud":"-65.042990","promedio_incremento_pct":"9.79"},{"id_comercio":"2","comercio_razon_social":"S.A. IMP. Y EXP. DE LA PATAGONIA","id_sucursal":"46","sucursales_nombre":"SAN ANTONIO OESTE","sucursales_localidad":"San Antonio Oeste","sucursales_latitud":"-40.730910","sucursales_longitud":"-64.939720","promedio_incremento_pct":"12.84"},{"id_comercio":"2","comercio_razon_social":"S.A. IMP. Y EXP. DE LA PATAGONIA","id_sucursal":"47","sucursales_nombre":"VIEDMA 2","sucursales_localidad":"Viedma","sucursales_latitud":"-40.816340","sucursales_longitud":"-63.003030","promedio_incremento_pct":"9.47"},{"id_comercio":"2","comercio_razon_social":"S.A. IMP. Y EXP. DE LA PATAGONIA","id_sucursal":"48","sucursales_nombre":"VILLA REGINA","sucursales_localidad":"Villa Regina","sucursales_latitud":"-39.095490","sucursales_longitud":"-67.092250","promedio_incremento_pct":"7.42"},{"id_comercio":"2","comercio_razon_social":"S.A. IMP. Y EXP. DE LA PATAGONIA","id_sucursal":"50","sucursales_nombre":"ZAPALA","sucursales_localidad":"Zapala","sucursales_latitud":"-38.892840","sucursales_longitud":"-70.066640","promedio_incremento_pct":"12.28"},{"id_comercio":"2","comercio_razon_social":"S.A. IMP. Y EXP. DE LA PATAGONIA","id_sucursal":"51","sucursales_nombre":"CIPOLLETTI 2","sucursales_localidad":"Cipolletti","sucursales_latitud":"-38.939820","sucursales_longitud":"-67.995300","promedio_incremento_pct":"8.86"},{"id_comercio":"2","comercio_razon_social":"S.A. IMP. Y EXP. DE LA PATAGONIA","id_sucursal":"53","sucursales_nombre":"ALLEN","sucursales_localidad":"Allen","sucursales_latitud":"-38.980550","sucursales_longitud":"-67.830110","promedio_incremento_pct":"10.91"},{"id_comercio":"2","comercio_razon_social":"S.A. IMP. Y EXP. DE LA PATAGONIA","id_sucursal":"55","sucursales_nombre":"CHACABUCO","sucursales_localidad":"Chacabuco","sucursales_latitud":"-34.643660","sucursales_longitud":"-60.470900","promedio_incremento_pct":"6.80"},{"id_comercio":"2","comercio_razon_social":"S.A. IMP. Y EXP. DE LA PATAGONIA","id_sucursal":"56","sucursales_nombre":"AUTOSERVICIO USHUAIA","sucursales_localidad":"Ushuaia","sucursales_latitud":"-54.817910","sucursales_longitud":"-68.335060","promedio_incremento_pct":"7.58"},{"id_comercio":"2","comercio_razon_social":"S.A. IMP. Y EXP. DE LA PATAGONIA","id_sucursal":"57","sucursales_nombre":"CHIVILCOY","sucursales_localidad":"Chivilcoy","sucursales_latitud":"-34.895400","sucursales_longitud":"-60.017500","promedio_incremento_pct":"6.62"},{"id_comercio":"2","comercio_razon_social":"S.A. IMP. Y EXP. DE LA PATAGONIA","id_sucursal":"58","sucursales_nombre":"BRAGADO","sucursales_localidad":"Bragado","sucursales_latitud":"-35.119830","sucursales_longitud":"-60.480450","promedio_incremento_pct":"5.93"},{"id_comercio":"2","comercio_razon_social":"S.A. IMP. Y EXP. DE LA PATAGONIA","id_sucursal":"67","sucursales_nombre":"VENADO TUERTO","sucursales_localidad":"Venado Tuerto","sucursales_latitud":"-33.746570","sucursales_longitud":"-61.967960","promedio_incremento_pct":"12.52"},{"id_comercio":"2","comercio_razon_social":"S.A. IMP. Y EXP. DE LA PATAGONIA","id_sucursal":"68","sucursales_nombre":"HIPERMERCADO NEUQUEN","sucursales_localidad":"Neuquen","sucursales_latitud":"-38.947000","sucursales_longitud":"-68.073420","promedio_incremento_pct":"14.41"},{"id_comercio":"2","comercio_razon_social":"S.A. IMP. Y EXP. DE LA PATAGONIA","id_sucursal":"69","sucursales_nombre":"C. DE PATAGONES","sucursales_localidad":"Carmen de Patagones","sucursales_latitud":"-40.799190","sucursales_longitud":"-62.978050","promedio_incremento_pct":"6.16"},{"id_comercio":"2","comercio_razon_social":"S.A. IMP. Y EXP. DE LA PATAGONIA","id_sucursal":"72","sucursales_nombre":"AUTOSERVICIO 2 R.GALLEGOS","sucursales_localidad":"Rio Gallegos","sucursales_latitud":"-51.632190","sucursales_longitud":"-69.198120","promedio_incremento_pct":"10.77"},{"id_comercio":"2","comercio_razon_social":"S.A. IMP. Y EXP. DE LA PATAGONIA","id_sucursal":"74","sucursales_nombre":"RIO GRANDE 4","sucursales_localidad":"Rio Grande","sucursales_latitud":"-53.778850","sucursales_longitud":"-67.718140","promedio_incremento_pct":"7.14"},{"id_comercio":"2","comercio_razon_social":"S.A. IMP. Y EXP. DE LA PATAGONIA","id_sucursal":"75","sucursales_nombre":"USHUAIA 3","sucursales_localidad":"Ushuaia","sucursales_latitud":"-54.803830","sucursales_longitud":"-68.302260","promedio_incremento_pct":"0.00"},{"id_comercio":"2","comercio_razon_social":"S.A. IMP. Y EXP. DE LA PATAGONIA","id_sucursal":"76","sucursales_nombre":"PLAZA HUINCUL","sucursales_localidad":"Plaza Huincul","sucursales_latitud":"-38.930400","sucursales_longitud":"-69.210670","promedio_incremento_pct":"10.38"},{"id_comercio":"2","comercio_razon_social":"S.A. IMP. Y EXP. DE LA PATAGONIA","id_sucursal":"84","sucursales_nombre":"BARILOCHE 4","sucursales_localidad":"San Carlos de Bariloche","sucursales_latitud":"-41.137980","sucursales_longitud":"-71.298460","promedio_incremento_pct":"10.41"},{"id_comercio":"2","comercio_razon_social":"S.A. IMP. Y EXP. DE LA PATAGONIA","id_sucursal":"85","sucursales_nombre":"JUNIN","sucursales_localidad":"Junin","sucursales_latitud":"-34.607170","sucursales_longitud":"-60.962520","promedio_incremento_pct":"6.47"},{"id_comercio":"2","comercio_razon_social":"S.A. IMP. Y EXP. DE LA PATAGONIA","id_sucursal":"90","sucursales_nombre":"SANTA ROSA","sucursales_localidad":"Santa Rosa","sucursales_latitud":"-36.632300","sucursales_longitud":"-64.296280","promedio_incremento_pct":"6.57"},{"id_comercio":"2","comercio_razon_social":"S.A. IMP. Y EXP. DE LA PATAGONIA","id_sucursal":"91","sucursales_nombre":"RIO GALLEGOS 4","sucursales_localidad":"Rio Gallegos","sucursales_latitud":"-51.621540","sucursales_longitud":"-69.245520","promedio_incremento_pct":"10.63"},{"id_comercio":"2","comercio_razon_social":"S.A. IMP. Y EXP. DE LA PATAGONIA","id_sucursal":"92","sucursales_nombre":"GENERAL ROCA 3","sucursales_localidad":"General Roca","sucursales_latitud":"-39.027930","sucursales_longitud":"-67.590070","promedio_incremento_pct":"7.97"},{"id_comercio":"2","comercio_razon_social":"S.A. IMP. Y EXP. DE LA PATAGONIA","id_sucursal":"96","sucursales_nombre":"SALTO","sucursales_localidad":"Salto","sucursales_latitud":"-34.290660","sucursales_longitud":"-60.254390","promedio_incremento_pct":"7.02"},{"id_comercio":"2","comercio_razon_social":"S.A. IMP. Y EXP. DE LA PATAGONIA","id_sucursal":"97","sucursales_nombre":"PUERTO DESEADO","sucursales_localidad":"Puerto Deseado","sucursales_latitud":"-47.743490","sucursales_longitud":"-65.886990","promedio_incremento_pct":"20.01"},{"id_comercio":"2","comercio_razon_social":"S.A. IMP. Y EXP. DE LA PATAGONIA","id_sucursal":"101","sucursales_nombre":"LINCOLN","sucursales_localidad":"Lincoln","sucursales_latitud":"-34.863540","sucursales_longitud":"-61.528660","promedio_incremento_pct":"211.71"},{"id_comercio":"2","comercio_razon_social":"S.A. IMP. Y EXP. DE LA PATAGONIA","id_sucursal":"102","sucursales_nombre":"SAN MARTIN DE LOS ANDES","sucursales_localidad":"San Martin de los Andes","sucursales_latitud":"-40.157540","sucursales_longitud":"-71.356240","promedio_incremento_pct":"10.57"},{"id_comercio":"2","comercio_razon_social":"S.A. IMP. Y EXP. DE LA PATAGONIA","id_sucursal":"103","sucursales_nombre":"TRENQUE LAUQUEN - SAIEP","sucursales_localidad":"Trenque Lauquen","sucursales_latitud":"-35.980110","sucursales_longitud":"-62.728320","promedio_incremento_pct":"8.40"},{"id_comercio":"2","comercio_razon_social":"S.A. IMP. Y EXP. DE LA PATAGONIA","id_sucursal":"104","sucursales_nombre":"SARMIENTO","sucursales_localidad":"Sarmiento","sucursales_latitud":"-45.589510","sucursales_longitud":"-69.068220","promedio_incremento_pct":"13.21"},{"id_comercio":"2","comercio_razon_social":"S.A. IMP. Y EXP. DE LA PATAGONIA","id_sucursal":"105","sucursales_nombre":"LURO","sucursales_localidad":"Santa Rosa","sucursales_latitud":"-36.627600","sucursales_longitud":"-64.281490","promedio_incremento_pct":"6.56"},{"id_comercio":"2","comercio_razon_social":"S.A. IMP. Y EXP. DE LA PATAGONIA","id_sucursal":"109","sucursales_nombre":"GENERAL PICO","sucursales_localidad":"General Pico","sucursales_latitud":"-35.655920","sucursales_longitud":"-63.757040","promedio_incremento_pct":"74.77"},{"id_comercio":"2","comercio_razon_social":"S.A. IMP. Y EXP. DE LA PATAGONIA","id_sucursal":"114","sucursales_nombre":"RUFINO","sucursales_localidad":"Rufino","sucursales_latitud":"-34.264470","sucursales_longitud":"-62.710670","promedio_incremento_pct":"7.86"},{"id_comercio":"2","comercio_razon_social":"S.A. IMP. Y EXP. DE LA PATAGONIA","id_sucursal":"117","sucursales_nombre":"AMEGHINO","sucursales_localidad":"Florentino Ameghino","sucursales_latitud":"-34.850330","sucursales_longitud":"-62.466760","promedio_incremento_pct":"7.79"},{"id_comercio":"2","comercio_razon_social":"S.A. IMP. Y EXP. DE LA PATAGONIA","id_sucursal":"118","sucursales_nombre":"CARLOS CASARES","sucursales_localidad":"Carlos Casares","sucursales_latitud":"-35.624580","sucursales_longitud":"-61.366430","promedio_incremento_pct":"7.49"},{"id_comercio":"2","comercio_razon_social":"S.A. IMP. Y EXP. DE LA PATAGONIA","id_sucursal":"119","sucursales_nombre":"LABOULAYE","sucursales_localidad":"Laboulaye","sucursales_latitud":"-34.124950","sucursales_longitud":"-63.387610","promedio_incremento_pct":"7.59"},{"id_comercio":"2","comercio_razon_social":"S.A. IMP. Y EXP. DE LA PATAGONIA","id_sucursal":"122","sucursales_nombre":"LISANDRO DE LA TORRE","sucursales_localidad":"Santa Rosa","sucursales_latitud":"-36.622040","sucursales_longitud":"-64.286940","promedio_incremento_pct":"7.54"},{"id_comercio":"2","comercio_razon_social":"S.A. IMP. Y EXP. DE LA PATAGONIA","id_sucursal":"124","sucursales_nombre":"GALLEGOS 5","sucursales_localidad":"Rio Gallegos","sucursales_latitud":"-51.615010","sucursales_longitud":"-69.227860","promedio_incremento_pct":"11.45"},{"id_comercio":"2","comercio_razon_social":"S.A. IMP. Y EXP. DE LA PATAGONIA","id_sucursal":"125","sucursales_nombre":"PEHUAJO","sucursales_localidad":"Pehuajo","sucursales_latitud":"-35.813650","sucursales_longitud":"-61.898210","promedio_incremento_pct":"7.45"},{"id_comercio":"2","comercio_razon_social":"S.A. IMP. Y EXP. DE LA PATAGONIA","id_sucursal":"127","sucursales_nombre":"DELTA VILLEGAS","sucursales_localidad":"General Villegas","sucursales_latitud":"-35.031650","sucursales_longitud":"-63.015600","promedio_incremento_pct":"7.52"},{"id_comercio":"2","comercio_razon_social":"S.A. IMP. Y EXP. DE LA PATAGONIA","id_sucursal":"131","sucursales_nombre":"EL CALAFATE","sucursales_localidad":"El Calafate","sucursales_latitud":"-50.337780","sucursales_longitud":"-72.261590","promedio_incremento_pct":"13.89"},{"id_comercio":"2","comercio_razon_social":"S.A. IMP. Y EXP. DE LA PATAGONIA","id_sucursal":"138","sucursales_nombre":"RIO TURBIO","sucursales_localidad":"Yacimientos Rio Turbio","sucursales_latitud":"-51.535550","sucursales_longitud":"-72.336170","promedio_incremento_pct":"14.22"},{"id_comercio":"2","comercio_razon_social":"S.A. IMP. Y EXP. DE LA PATAGONIA","id_sucursal":"141","sucursales_nombre":"USHUAIA 4","sucursales_localidad":"Ushuaia","sucursales_latitud":"-54.810100","sucursales_longitud":"-68.318310","promedio_incremento_pct":"6.05"},{"id_comercio":"2","comercio_razon_social":"S.A. IMP. Y EXP. DE LA PATAGONIA","id_sucursal":"143","sucursales_nombre":"LUCERO SANTA ROSA","sucursales_localidad":"Santa Rosa","sucursales_latitud":"-36.613500","sucursales_longitud":"-64.291230","promedio_incremento_pct":"7.88"},{"id_comercio":"2","comercio_razon_social":"S.A. IMP. Y EXP. DE LA PATAGONIA","id_sucursal":"145","sucursales_nombre":"PICO TRUNCADO","sucursales_localidad":"Pico Truncado","sucursales_latitud":"-46.803350","sucursales_longitud":"-67.957730","promedio_incremento_pct":"14.59"},{"id_comercio":"2","comercio_razon_social":"S.A. IMP. Y EXP. DE LA PATAGONIA","id_sucursal":"147","sucursales_nombre":"JUNIN DE LOS ANDES","sucursales_localidad":"Junin de los Andes","sucursales_latitud":"-39.951750","sucursales_longitud":"-71.069530","promedio_incremento_pct":"12.57"},{"id_comercio":"2","comercio_razon_social":"S.A. IMP. Y EXP. DE LA PATAGONIA","id_sucursal":"150","sucursales_nombre":"QUIJOTE CENTRO","sucursales_localidad":"Rafaela","sucursales_latitud":"-31.253490","sucursales_longitud":"-61.492540","promedio_incremento_pct":"5.81"},{"id_comercio":"2","comercio_razon_social":"S.A. IMP. Y EXP. DE LA PATAGONIA","id_sucursal":"153","sucursales_nombre":"QUIJOTE ESPERANZA","sucursales_localidad":"Esperanza","sucursales_latitud":"-31.449940","sucursales_longitud":"-60.929910","promedio_incremento_pct":"6.11"},{"id_comercio":"2","comercio_razon_social":"S.A. IMP. Y EXP. DE LA PATAGONIA","id_sucursal":"156","sucursales_nombre":"QUIJOTE SAN JORGE","sucursales_localidad":"San Jorge","sucursales_latitud":"-31.896450","sucursales_longitud":"-61.860850","promedio_incremento_pct":"8.65"},{"id_comercio":"2","comercio_razon_social":"S.A. IMP. Y EXP. DE LA PATAGONIA","id_sucursal":"159","sucursales_nombre":"BARRIO 1008","sucursales_localidad":"Comodoro Rivadavia","sucursales_latitud":"-45.882880","sucursales_longitud":"-67.538800","promedio_incremento_pct":"9.74"},{"id_comercio":"2","comercio_razon_social":"S.A. IMP. Y EXP. DE LA PATAGONIA","id_sucursal":"160","sucursales_nombre":"LAS HERAS","sucursales_localidad":"Las Heras","sucursales_latitud":"-46.546390","sucursales_longitud":"-68.927910","promedio_incremento_pct":"13.44"},{"id_comercio":"2","comercio_razon_social":"S.A. IMP. Y EXP. DE LA PATAGONIA","id_sucursal":"161","sucursales_nombre":"CALAFATE II","sucursales_localidad":"El Calafate","sucursales_latitud":"-50.347120","sucursales_longitud":"-72.268950","promedio_incremento_pct":"14.53"},{"id_comercio":"2","comercio_razon_social":"S.A. IMP. Y EXP. DE LA PATAGONIA","id_sucursal":"162","sucursales_nombre":"BELGRANO 1","sucursales_localidad":"Neuquen","sucursales_latitud":"-38.950450","sucursales_longitud":"-68.111470","promedio_incremento_pct":"10.01"},{"id_comercio":"2","comercio_razon_social":"S.A. IMP. Y EXP. DE LA PATAGONIA","id_sucursal":"163","sucursales_nombre":"SIERRA GRANDE","sucursales_localidad":"Sierra Grande","sucursales_latitud":"-41.611370","sucursales_longitud":"-65.358490","promedio_incremento_pct":"11.83"},{"id_comercio":"2","comercio_razon_social":"S.A. IMP. Y EXP. DE LA PATAGONIA","id_sucursal":"164","sucursales_nombre":"CIPOLLETTI 3","sucursales_localidad":"Cipolletti","sucursales_latitud":"-38.926630","sucursales_longitud":"-67.990510","promedio_incremento_pct":"7.83"},{"id_comercio":"2","comercio_razon_social":"S.A. IMP. Y EXP. DE LA PATAGONIA","id_sucursal":"165","sucursales_nombre":"EL BOLSON 2","sucursales_localidad":"El Bolson","sucursales_latitud":"-41.971000","sucursales_longitud":"-71.531050","promedio_incremento_pct":"27.70"},{"id_comercio":"2","comercio_razon_social":"S.A. IMP. Y EXP. DE LA PATAGONIA","id_sucursal":"166","sucursales_nombre":"USHUAIA 5","sucursales_localidad":"Ushuaia","sucursales_latitud":"-54.830640","sucursales_longitud":"-68.353430","promedio_incremento_pct":"114.69"},{"id_comercio":"2","comercio_razon_social":"S.A. IMP. Y EXP. DE LA PATAGONIA","id_sucursal":"167","sucursales_nombre":"PUERTO MADRYN 3","sucursales_localidad":"Puerto Madryn","sucursales_latitud":"-42.780870","sucursales_longitud":"-65.037070","promedio_incremento_pct":"9.79"},{"id_comercio":"2","comercio_razon_social":"S.A. IMP. Y EXP. DE LA PATAGONIA","id_sucursal":"168","sucursales_nombre":"TREVELIN","sucursales_localidad":"Trevelin","sucursales_latitud":"-43.098290","sucursales_longitud":"-71.464020","promedio_incremento_pct":"14.70"},{"id_comercio":"2","comercio_razon_social":"S.A. IMP. Y EXP. DE LA PATAGONIA","id_sucursal":"171","sucursales_nombre":"SAN JUSTO","sucursales_localidad":"San Justo","sucursales_latitud":"-30.784910","sucursales_longitud":"-60.585480","promedio_incremento_pct":"6.78"},{"id_comercio":"2","comercio_razon_social":"S.A. IMP. Y EXP. DE LA PATAGONIA","id_sucursal":"172","sucursales_nombre":"RINCON DE LOS SAUCES","sucursales_localidad":"Rincon de los Sauces","sucursales_latitud":"-37.395400","sucursales_longitud":"-68.923060","promedio_incremento_pct":"15.21"},{"id_comercio":"2","comercio_razon_social":"S.A. IMP. Y EXP. DE LA PATAGONIA","id_sucursal":"173","sucursales_nombre":"JUNIN 2","sucursales_localidad":"Junin","sucursales_latitud":"-34.590040","sucursales_longitud":"-60.948100","promedio_incremento_pct":"7.36"},{"id_comercio":"2","comercio_razon_social":"S.A. IMP. Y EXP. DE LA PATAGONIA","id_sucursal":"175","sucursales_nombre":"BARILOCHE 5","sucursales_localidad":"San Carlos de Bariloche","sucursales_latitud":"-41.101500","sucursales_longitud":"-71.444590","promedio_incremento_pct":"9.46"},{"id_comercio":"2","comercio_razon_social":"S.A. IMP. Y EXP. DE LA PATAGONIA","id_sucursal":"177","sucursales_nombre":"V.LA ANGOSTURA 2","sucursales_localidad":"Villa la Angostura","sucursales_latitud":"-40.758890","sucursales_longitud":"-71.648190","promedio_incremento_pct":"10.18"},{"id_comercio":"2","comercio_razon_social":"S.A. IMP. Y EXP. DE LA PATAGONIA","id_sucursal":"179","sucursales_nombre":"RADA TILLY","sucursales_localidad":"Rada Tilly","sucursales_latitud":"-45.929690","sucursales_longitud":"-67.571550","promedio_incremento_pct":"13.93"},{"id_comercio":"2","comercio_razon_social":"S.A. IMP. Y EXP. DE LA PATAGONIA","id_sucursal":"181","sucursales_nombre":"PLAYA UNION","sucursales_localidad":"Playa Union","sucursales_latitud":"-43.318810","sucursales_longitud":"-65.049490","promedio_incremento_pct":"9.80"},{"id_comercio":"2","comercio_razon_social":"S.A. IMP. Y EXP. DE LA PATAGONIA","id_sucursal":"182","sucursales_nombre":"PLOTTIER","sucursales_localidad":"Plottier","sucursales_latitud":"-38.947920","sucursales_longitud":"-68.225790","promedio_incremento_pct":"8.94"},{"id_comercio":"2","comercio_razon_social":"S.A. IMP. Y EXP. DE LA PATAGONIA","id_sucursal":"183","sucursales_nombre":"RIO GALLEGOS 6","sucursales_localidad":"Rio Gallegos","sucursales_latitud":"-51.638470","sucursales_longitud":"-69.219970","promedio_incremento_pct":"10.68"},{"id_comercio":"2","comercio_razon_social":"S.A. IMP. Y EXP. DE LA PATAGONIA","id_sucursal":"184","sucursales_nombre":"PIEDRA BUENA","sucursales_localidad":"Piedra Buena","sucursales_latitud":"-49.986650","sucursales_longitud":"-68.924830","promedio_incremento_pct":"14.00"},{"id_comercio":"2","comercio_razon_social":"S.A. IMP. Y EXP. DE LA PATAGONIA","id_sucursal":"185","sucursales_nombre":"AZUL","sucursales_localidad":"Azul","sucursales_latitud":"-36.783740","sucursales_longitud":"-59.852910","promedio_incremento_pct":"7.50"},{"id_comercio":"2","comercio_razon_social":"S.A. IMP. Y EXP. DE LA PATAGONIA","id_sucursal":"186","sucursales_nombre":"PICO TRUNCADO 2","sucursales_localidad":"Pico Truncado","sucursales_latitud":"-46.801910","sucursales_longitud":"-67.946550","promedio_incremento_pct":"14.21"},{"id_comercio":"2","comercio_razon_social":"S.A. IMP. Y EXP. DE LA PATAGONIA","id_sucursal":"188","sucursales_nombre":"CATRIEL","sucursales_localidad":"Catriel","sucursales_latitud":"-37.884350","sucursales_longitud":"-67.798860","promedio_incremento_pct":"95.75"},{"id_comercio":"2","comercio_razon_social":"S.A. IMP. Y EXP. DE LA PATAGONIA","id_sucursal":"189","sucursales_nombre":"ESQUEL 3","sucursales_localidad":"Esquel","sucursales_latitud":"-42.914260","sucursales_longitud":"-71.298990","promedio_incremento_pct":"14.40"},{"id_comercio":"2","comercio_razon_social":"S.A. IMP. Y EXP. DE LA PATAGONIA","id_sucursal":"192","sucursales_nombre":"SAN JULIAN","sucursales_localidad":"San Julian","sucursales_latitud":"-49.303390","sucursales_longitud":"-67.751800","promedio_incremento_pct":"13.96"},{"id_comercio":"2","comercio_razon_social":"S.A. IMP. Y EXP. DE LA PATAGONIA","id_sucursal":"197","sucursales_nombre":"GOBERNADOR GREGORES","sucursales_localidad":"Gobernador Gregores","sucursales_latitud":"-48.750440","sucursales_longitud":"-70.247610","promedio_incremento_pct":"122.68"},{"id_comercio":"2","comercio_razon_social":"S.A. IMP. Y EXP. DE LA PATAGONIA","id_sucursal":"198","sucursales_nombre":"RIO GALLEGOS 7","sucursales_localidad":"Rio Gallegos","sucursales_latitud":"-51.628910","sucursales_longitud":"-69.237560","promedio_incremento_pct":"12.12"},{"id_comercio":"2","comercio_razon_social":"S.A. IMP. Y EXP. DE LA PATAGONIA","id_sucursal":"199","sucursales_nombre":"RIO GALLEGOS 8","sucursales_localidad":"Rio Gallegos","sucursales_latitud":"-51.635440","sucursales_longitud":"-69.209360","promedio_incremento_pct":"10.60"},{"id_comercio":"2","comercio_razon_social":"S.A. IMP. Y EXP. DE LA PATAGONIA","id_sucursal":"200","sucursales_nombre":"RIO GALLEGOS 9","sucursales_localidad":"Rio Gallegos","sucursales_latitud":"-51.619640","sucursales_longitud":"-69.222240","promedio_incremento_pct":"9.85"},{"id_comercio":"2","comercio_razon_social":"S.A. IMP. Y EXP. DE LA PATAGONIA","id_sucursal":"201","sucursales_nombre":"MERCEDES","sucursales_localidad":"Mercedes","sucursales_latitud":"-34.643590","sucursales_longitud":"-59.435860","promedio_incremento_pct":"81.80"},{"id_comercio":"2","comercio_razon_social":"S.A. IMP. Y EXP. DE LA PATAGONIA","id_sucursal":"202","sucursales_nombre":"SANTA ROSA V","sucursales_localidad":"Santa Rosa","sucursales_latitud":"-36.600090","sucursales_longitud":"-64.302130","promedio_incremento_pct":"7.64"},{"id_comercio":"2","comercio_razon_social":"S.A. IMP. Y EXP. DE LA PATAGONIA","id_sucursal":"203","sucursales_nombre":"TRENQUE LAUQUEN 3","sucursales_localidad":"Trenque Lauquen","sucursales_latitud":"-35.978690","sucursales_longitud":"-62.741700","promedio_incremento_pct":"7.00"},{"id_comercio":"2","comercio_razon_social":"S.A. IMP. Y EXP. DE LA PATAGONIA","id_sucursal":"204","sucursales_nombre":"28 DE NOVIEMBRE 2","sucursales_localidad":"28 de Noviembre","sucursales_latitud":"-51.575630","sucursales_longitud":"-72.213560","promedio_incremento_pct":"14.21"},{"id_comercio":"2","comercio_razon_social":"S.A. IMP. Y EXP. DE LA PATAGONIA","id_sucursal":"205","sucursales_nombre":"RIO GALLEGOS 10","sucursales_localidad":"Rio Gallegos","sucursales_latitud":"-51.612930","sucursales_longitud":"-69.245450","promedio_incremento_pct":"10.43"},{"id_comercio":"2","comercio_razon_social":"S.A. IMP. Y EXP. DE LA PATAGONIA","id_sucursal":"206","sucursales_nombre":"GOYA","sucursales_localidad":"Goya","sucursales_latitud":"-29.129740","sucursales_longitud":"-59.260950","promedio_incremento_pct":"4.94"},{"id_comercio":"2","comercio_razon_social":"S.A. IMP. Y EXP. DE LA PATAGONIA","id_sucursal":"207","sucursales_nombre":"GAIMAN","sucursales_localidad":"Gaiman","sucursales_latitud":"-43.300210","sucursales_longitud":"-65.491400","promedio_incremento_pct":"9.89"},{"id_comercio":"2","comercio_razon_social":"S.A. IMP. Y EXP. DE LA PATAGONIA","id_sucursal":"208","sucursales_nombre":"LAS GRUTAS","sucursales_localidad":"Las Grutas","sucursales_latitud":"-40.794540","sucursales_longitud":"-65.075880","promedio_incremento_pct":"11.66"},{"id_comercio":"2","comercio_razon_social":"S.A. IMP. Y EXP. DE LA PATAGONIA","id_sucursal":"211","sucursales_nombre":"TOLHUIN","sucursales_localidad":"Tolhuin","sucursales_latitud":"-54.501320","sucursales_longitud":"-67.205510","promedio_incremento_pct":"6.56"},{"id_comercio":"2","comercio_razon_social":"S.A. IMP. Y EXP. DE LA PATAGONIA","id_sucursal":"212","sucursales_nombre":"SAN MARTIN DE LOS ANDES II","sucursales_localidad":"San Martin de los Andes","sucursales_latitud":"-40.143510","sucursales_longitud":"-71.302820","promedio_incremento_pct":"10.89"},{"id_comercio":"2","comercio_razon_social":"S.A. IMP. Y EXP. DE LA PATAGONIA","id_sucursal":"213","sucursales_nombre":"CENTENARIO 1","sucursales_localidad":"Centenario","sucursales_latitud":"-38.827330","sucursales_longitud":"-68.144410","promedio_incremento_pct":"6.74"},{"id_comercio":"2","comercio_razon_social":"S.A. IMP. Y EXP. DE LA PATAGONIA","id_sucursal":"214","sucursales_nombre":"PERITO MORENO","sucursales_localidad":"Perito Moreno","sucursales_latitud":"-46.583370","sucursales_longitud":"-70.937230","promedio_incremento_pct":"28.32"},{"id_comercio":"2","comercio_razon_social":"S.A. IMP. Y EXP. DE LA PATAGONIA","id_sucursal":"215","sucursales_nombre":"RIO COLORADO","sucursales_localidad":"Rio Colorado","sucursales_latitud":"-38.988320","sucursales_longitud":"-64.097190","promedio_incremento_pct":"7.62"},{"id_comercio":"2","comercio_razon_social":"S.A. IMP. Y EXP. DE LA PATAGONIA","id_sucursal":"216","sucursales_nombre":"CHOELE CHOEL","sucursales_localidad":"Choele Choel","sucursales_latitud":"-39.298730","sucursales_longitud":"-65.648020","promedio_incremento_pct":"7.27"},{"id_comercio":"2","comercio_razon_social":"S.A. IMP. Y EXP. DE LA PATAGONIA","id_sucursal":"217","sucursales_nombre":"CALETA OLIVIA 3","sucursales_localidad":"Caleta Olivia","sucursales_latitud":"-46.440420","sucursales_longitud":"-67.546730","promedio_incremento_pct":"10.45"},{"id_comercio":"2","comercio_razon_social":"S.A. IMP. Y EXP. DE LA PATAGONIA","id_sucursal":"220","sucursales_nombre":"RIO GRANDE 5","sucursales_localidad":"Rio Grande","sucursales_latitud":"-53.809060","sucursales_longitud":"-67.687750","promedio_incremento_pct":"170.01"},{"id_comercio":"2","comercio_razon_social":"S.A. IMP. Y EXP. DE LA PATAGONIA","id_sucursal":"221","sucursales_nombre":"MORTEROS","sucursales_localidad":"Morteros","sucursales_latitud":"-30.725230","sucursales_longitud":"-62.009680","promedio_incremento_pct":"8.00"},{"id_comercio":"2","comercio_razon_social":"S.A. IMP. Y EXP. DE LA PATAGONIA","id_sucursal":"225","sucursales_nombre":"AVD SAN JUAN","sucursales_localidad":"Neuquen","sucursales_latitud":"-38.946160","sucursales_longitud":"-68.058170","promedio_incremento_pct":"7.40"},{"id_comercio":"2","comercio_razon_social":"S.A. IMP. Y EXP. DE LA PATAGONIA","id_sucursal":"226","sucursales_nombre":"NEUQUEN CENTRO","sucursales_localidad":"Neuquen","sucursales_latitud":"-38.953510","sucursales_longitud":"-68.062400","promedio_incremento_pct":"5.63"},{"id_comercio":"2","comercio_razon_social":"S.A. IMP. Y EXP. DE LA PATAGONIA","id_sucursal":"228","sucursales_nombre":"CUTRAL CO 2","sucursales_localidad":"Cutral Co","sucursales_latitud":"-38.934450","sucursales_longitud":"-69.233040","promedio_incremento_pct":"10.45"},{"id_comercio":"2","comercio_razon_social":"S.A. IMP. Y EXP. DE LA PATAGONIA","id_sucursal":"229","sucursales_nombre":"NEUQUEN OESTE 2","sucursales_localidad":"Neuquen","sucursales_latitud":"-38.949710","sucursales_longitud":"-68.117430","promedio_incremento_pct":"8.10"},{"id_comercio":"2","comercio_razon_social":"S.A. IMP. Y EXP. DE LA PATAGONIA","id_sucursal":"230","sucursales_nombre":"AUTOSERVICIO ZAPALA 2","sucursales_localidad":"Zapala","sucursales_latitud":"-38.907390","sucursales_longitud":"-70.067330","promedio_incremento_pct":"10.91"},{"id_comercio":"2","comercio_razon_social":"S.A. IMP. Y EXP. DE LA PATAGONIA","id_sucursal":"232","sucursales_nombre":"FAVA","sucursales_localidad":"Neuquen","sucursales_latitud":"-38.969000","sucursales_longitud":"-68.059660","promedio_incremento_pct":"7.95"},{"id_comercio":"2","comercio_razon_social":"S.A. IMP. Y EXP. DE LA PATAGONIA","id_sucursal":"233","sucursales_nombre":"BELGRANO 3","sucursales_localidad":"Neuquen","sucursales_latitud":"-38.950830","sucursales_longitud":"-68.075390","promedio_incremento_pct":"8.56"},{"id_comercio":"2","comercio_razon_social":"S.A. IMP. Y EXP. DE LA PATAGONIA","id_sucursal":"234","sucursales_nombre":"AUTOSERVICIO PLOTTIER 2","sucursales_localidad":"Plottier","sucursales_latitud":"-38.957100","sucursales_longitud":"-68.228890","promedio_incremento_pct":"8.12"},{"id_comercio":"2","comercio_razon_social":"S.A. IMP. Y EXP. DE LA PATAGONIA","id_sucursal":"235","sucursales_nombre":"ALDERETE","sucursales_localidad":"Neuquen","sucursales_latitud":"-38.950930","sucursales_longitud":"-68.030640","promedio_incremento_pct":"8.50"},{"id_comercio":"2","comercio_razon_social":"S.A. IMP. Y EXP. DE LA PATAGONIA","id_sucursal":"236","sucursales_nombre":"NEUQUEN OESTE 1","sucursales_localidad":"Neuquen","sucursales_latitud":"-38.938560","sucursales_longitud":"-68.117340","promedio_incremento_pct":"8.11"},{"id_comercio":"2","comercio_razon_social":"S.A. IMP. Y EXP. DE LA PATAGONIA","id_sucursal":"237","sucursales_nombre":"ALTA BARDA","sucursales_localidad":"Neuquen","sucursales_latitud":"-38.933010","sucursales_longitud":"-68.074000","promedio_incremento_pct":"8.61"},{"id_comercio":"2","comercio_razon_social":"S.A. IMP. Y EXP. DE LA PATAGONIA","id_sucursal":"238","sucursales_nombre":"AUTOSERVICIO CIPOLLETTI 4","sucursales_localidad":"Cipolletti","sucursales_latitud":"-38.935670","sucursales_longitud":"-67.996130","promedio_incremento_pct":"8.20"},{"id_comercio":"2","comercio_razon_social":"S.A. IMP. Y EXP. DE LA PATAGONIA","id_sucursal":"239","sucursales_nombre":"AVDA TRABAJADOR","sucursales_localidad":"Neuquen","sucursales_latitud":"-38.944410","sucursales_longitud":"-68.102300","promedio_incremento_pct":"7.98"},{"id_comercio":"2","comercio_razon_social":"S.A. IMP. Y EXP. DE LA PATAGONIA","id_sucursal":"240","sucursales_nombre":"BELGRANO 2","sucursales_localidad":"Neuquen","sucursales_latitud":"-38.950660","sucursales_longitud":"-68.089550","promedio_incremento_pct":"8.37"},{"id_comercio":"2","comercio_razon_social":"S.A. IMP. Y EXP. DE LA PATAGONIA","id_sucursal":"241","sucursales_nombre":"GRAL ROCA CENTRO 5","sucursales_localidad":"General Roca","sucursales_latitud":"-39.028510","sucursales_longitud":"-67.574970","promedio_incremento_pct":"7.56"},{"id_comercio":"2","comercio_razon_social":"S.A. IMP. Y EXP. DE LA PATAGONIA","id_sucursal":"242","sucursales_nombre":"AUTOSERVICIO CINCO SALTOS 2","sucursales_localidad":"Cinco Saltos","sucursales_latitud":"-38.829250","sucursales_longitud":"-68.063970","promedio_incremento_pct":"8.25"},{"id_comercio":"2","comercio_razon_social":"S.A. IMP. Y EXP. DE LA PATAGONIA","id_sucursal":"243","sucursales_nombre":"AUTOSERVICIO CIPOLLETTI 5","sucursales_localidad":"Cipolletti","sucursales_latitud":"-38.948560","sucursales_longitud":"-67.992170","promedio_incremento_pct":"8.34"},{"id_comercio":"2","comercio_razon_social":"S.A. IMP. Y EXP. DE LA PATAGONIA","id_sucursal":"246","sucursales_nombre":"AUTOSERVICIO VILLA REGINA 2","sucursales_localidad":"Villa Regina","sucursales_latitud":"-39.098750","sucursales_longitud":"-67.087080","promedio_incremento_pct":"8.71"},{"id_comercio":"2","comercio_razon_social":"S.A. IMP. Y EXP. DE LA PATAGONIA","id_sucursal":"247","sucursales_nombre":"AUTOSERVICIO ZAPALA 3","sucursales_localidad":"Zapala","sucursales_latitud":"-38.898910","sucursales_longitud":"-70.073840","promedio_incremento_pct":"11.41"},{"id_comercio":"2","comercio_razon_social":"S.A. IMP. Y EXP. DE LA PATAGONIA","id_sucursal":"248","sucursales_nombre":"ANTARTIDA ARGENTINA","sucursales_localidad":"Neuquen","sucursales_latitud":"-38.947310","sucursales_longitud":"-68.084610","promedio_incremento_pct":"8.59"},{"id_comercio":"2","comercio_razon_social":"S.A. IMP. Y EXP. DE LA PATAGONIA","id_sucursal":"257","sucursales_nombre":"LAGO PUELO","sucursales_localidad":"Lago Puelo","sucursales_latitud":"-42.060110","sucursales_longitud":"-71.600360","promedio_incremento_pct":"13.86"},{"id_comercio":"2","comercio_razon_social":"S.A. IMP. Y EXP. DE LA PATAGONIA","id_sucursal":"260","sucursales_nombre":"9 DE JULIO","sucursales_localidad":"9 de Julio","sucursales_latitud":"-35.456900","sucursales_longitud":"-60.890510","promedio_incremento_pct":"58.78"},{"id_comercio":"2","comercio_razon_social":"S.A. IMP. Y EXP. DE LA PATAGONIA","id_sucursal":"261","sucursales_nombre":"SUNCHALES","sucursales_localidad":"Sunchales","sucursales_latitud":"-30.950000","sucursales_longitud":"-61.561480","promedio_incremento_pct":"6.99"},{"id_comercio":"2","comercio_razon_social":"S.A. IMP. Y EXP. DE LA PATAGONIA","id_sucursal":"263","sucursales_nombre":"PUERTO SANTA CRUZ","sucursales_localidad":"Puerto Santa Cruz","sucursales_latitud":"-50.016140","sucursales_longitud":"-68.519300","promedio_incremento_pct":"14.40"},{"id_comercio":"2","comercio_razon_social":"S.A. IMP. Y EXP. DE LA PATAGONIA","id_sucursal":"264","sucursales_nombre":"MARCOS JUAREZ","sucursales_localidad":"Marcos Juares","sucursales_latitud":"-32.700000","sucursales_longitud":"-62.095010","promedio_incremento_pct":"7.15"},{"id_comercio":"2","comercio_razon_social":"S.A. IMP. Y EXP. DE LA PATAGONIA","id_sucursal":"265","sucursales_nombre":"CINCO SALTOS 1","sucursales_localidad":"Cinco Saltos","sucursales_latitud":"-38.828960","sucursales_longitud":"-68.070580","promedio_incremento_pct":"21.58"},{"id_comercio":"2","comercio_razon_social":"S.A. IMP. Y EXP. DE LA PATAGONIA","id_sucursal":"266","sucursales_nombre":"ANELO","sucursales_localidad":"Aguada San Roque","sucursales_latitud":"-38.353100","sucursales_longitud":"-68.792500","promedio_incremento_pct":"16.13"},{"id_comercio":"2","comercio_razon_social":"S.A. IMP. Y EXP. DE LA PATAGONIA","id_sucursal":"351","sucursales_nombre":"ARROYITO","sucursales_localidad":"Arroyito","sucursales_latitud":"-31.420260","sucursales_longitud":"-63.063750","promedio_incremento_pct":"8.15"},{"id_comercio":"2","comercio_razon_social":"S.A. IMP. Y EXP. DE LA PATAGONIA","id_sucursal":"356","sucursales_nombre":"CENTENARIO II","sucursales_localidad":"Centenario","sucursales_latitud":"-38.833100","sucursales_longitud":"-68.119180","promedio_incremento_pct":"8.14"},{"id_comercio":"2","comercio_razon_social":"S.A. IMP. Y EXP. DE LA PATAGONIA","id_sucursal":"357","sucursales_nombre":"SAN PATRICIO DEL CHAÑAR","sucursales_localidad":"San Patricio del Chañar","sucursales_latitud":"-38.627300","sucursales_longitud":"-68.302840","promedio_incremento_pct":"12.87"},{"id_comercio":"2","comercio_razon_social":"S.A. IMP. Y EXP. DE LA PATAGONIA","id_sucursal":"361","sucursales_nombre":"BELLA VISTA","sucursales_localidad":"Bella Vista","sucursales_latitud":"-28.510340","sucursales_longitud":"-59.032940","promedio_incremento_pct":"3.68"},{"id_comercio":"2","comercio_razon_social":"S.A. IMP. Y EXP. DE LA PATAGONIA","id_sucursal":"363","sucursales_nombre":"FERNANDEZ ORO","sucursales_localidad":"Gral Fernandez Oro","sucursales_latitud":"-38.953650","sucursales_longitud":"-67.919480","promedio_incremento_pct":"9.23"},{"id_comercio":"2","comercio_razon_social":"S.A. IMP. Y EXP. DE LA PATAGONIA","id_sucursal":"8015","sucursales_nombre":"LA ANONIMA ONLINE","sucursales_localidad":"Ituzaingo","sucursales_latitud":"-34.635330","sucursales_longitud":"-58.709920","promedio_incremento_pct":"29.90"},{"id_comercio":"2","comercio_razon_social":"S.A. IMP. Y EXP. DE LA PATAGONIA","id_sucursal":"9021","sucursales_nombre":"LA ANONIMA ONLINE FOOD","sucursales_localidad":"Ituzaingo","sucursales_latitud":"-34.635330","sucursales_longitud":"-58.709920","promedio_incremento_pct":"9.66"},{"id_comercio":"3","comercio_razon_social":"DEHEZA S.A.I.C.F. e I.","id_sucursal":"3","sucursales_nombre":"RIVER","sucursales_localidad":"CAPITAL FEDERAL","sucursales_latitud":"-34.546397","sucursales_longitud":"-58.451884","promedio_incremento_pct":"19520.84"},{"id_comercio":"3","comercio_razon_social":"DEHEZA S.A.I.C.F. e I.","id_sucursal":"29","sucursales_nombre":"CABILDO","sucursales_localidad":"CAPITAL FEDERAL","sucursales_latitud":"-34.541473","sucursales_longitud":"-58.47384","promedio_incremento_pct":"19520.59"},{"id_comercio":"3","comercio_razon_social":"DEHEZA S.A.I.C.F. e I.","id_sucursal":"31","sucursales_nombre":"CENTENARIO","sucursales_localidad":"CAPITAL FEDERAL","sucursales_latitud":"-34.575574","sucursales_longitud":"-58.397682","promedio_incremento_pct":"19521.30"},{"id_comercio":"3","comercio_razon_social":"DEHEZA S.A.I.C.F. e I.","id_sucursal":"36","sucursales_nombre":"LINCOLN Y NUEVA YORK","sucursales_localidad":"CAPITAL FEDERAL","sucursales_latitud":"-34.599622","sucursales_longitud":"-58.510300","promedio_incremento_pct":"19520.59"},{"id_comercio":"3","comercio_razon_social":"DEHEZA S.A.I.C.F. e I.","id_sucursal":"56","sucursales_nombre":"OLIVOS","sucursales_localidad":"OLIVOS","sucursales_latitud":"-34.50855","sucursales_longitud":"-58.47972","promedio_incremento_pct":"19521.26"},{"id_comercio":"3","comercio_razon_social":"DEHEZA S.A.I.C.F. e I.","id_sucursal":"65","sucursales_nombre":"LA PLATA","sucursales_localidad":"LA PLATA","sucursales_latitud":"-34.930175","sucursales_longitud":"-57.953545","promedio_incremento_pct":"0.35"},{"id_comercio":"3","comercio_razon_social":"DEHEZA S.A.I.C.F. e I.","id_sucursal":"66","sucursales_nombre":"LA PLATA","sucursales_localidad":"LA PLATA","sucursales_latitud":"-34.911498","sucursales_longitud":"-57.956494","promedio_incremento_pct":"0.35"},{"id_comercio":"3","comercio_razon_social":"DEHEZA S.A.I.C.F. e I.","id_sucursal":"599","sucursales_nombre":"VIRREY DEL PINO","sucursales_localidad":"CAPITAL FEDERAL","sucursales_latitud":"-34.56902","sucursales_longitud":"-58.457493","promedio_incremento_pct":"19520.56"},{"id_comercio":"3","comercio_razon_social":"DEHEZA S.A.I.C.F. e I.","id_sucursal":"631","sucursales_nombre":"REMEDIOS DE ESCALADA","sucursales_localidad":"REMEDIOS DE ESCALADA","sucursales_latitud":"-34.736425","sucursales_longitud":"-58.390188","promedio_incremento_pct":"0.35"},{"id_comercio":"3","comercio_razon_social":"DEHEZA S.A.I.C.F. e I.","id_sucursal":"1066","sucursales_nombre":"SALGUERO","sucursales_localidad":"CAPITAL FEDERAL","sucursales_latitud":"-34.597814","sucursales_longitud":"-58.419089","promedio_incremento_pct":"19520.53"},{"id_comercio":"3","comercio_razon_social":"DEHEZA S.A.I.C.F. e I.","id_sucursal":"1068","sucursales_nombre":"GIUFRA","sucursales_localidad":"CAPITAL FEDERAL","sucursales_latitud":"-34.618135","sucursales_longitud":"-58.369851","promedio_incremento_pct":"0.35"},{"id_comercio":"3","comercio_razon_social":"DEHEZA S.A.I.C.F. e I.","id_sucursal":"1132","sucursales_nombre":"JORGE NEWBERY","sucursales_localidad":"CAPITAL FEDERAL","sucursales_latitud":"-34.588729","sucursales_longitud":"-58.450443","promedio_incremento_pct":"0.35"},{"id_comercio":"3","comercio_razon_social":"DEHEZA S.A.I.C.F. e I.","id_sucursal":"1230","sucursales_nombre":"CERRITO","sucursales_localidad":"CAPITAL FEDERAL","sucursales_latitud":"-34.589266","sucursales_longitud":"-58.381335","promedio_incremento_pct":"19521.30"},{"id_comercio":"3","comercio_razon_social":"DEHEZA S.A.I.C.F. e I.","id_sucursal":"1291","sucursales_nombre":"PILAR NORTE","sucursales_localidad":"PILAR","sucursales_latitud":"-34.44959","sucursales_longitud":"-58.86835","promedio_incremento_pct":"19516.72"},{"id_comercio":"3","comercio_razon_social":"DEHEZA S.A.I.C.F. e I.","id_sucursal":"1344","sucursales_nombre":"LA PLATA","sucursales_localidad":"LA PLATA","sucursales_latitud":"-34.90023","sucursales_longitud":"-57.969828","promedio_incremento_pct":"0.35"},{"id_comercio":"3","comercio_razon_social":"DEHEZA S.A.I.C.F. e I.","id_sucursal":"1389","sucursales_nombre":"CHASCOMUS","sucursales_localidad":"CHASCOMUS","sucursales_latitud":"-35.528798","sucursales_longitud":"-58.012131","promedio_incremento_pct":"19577.08"},{"id_comercio":"3","comercio_razon_social":"DEHEZA S.A.I.C.F. e I.","id_sucursal":"1401","sucursales_nombre":"SARANDI","sucursales_localidad":"SARANDI","sucursales_latitud":"-34.682870","sucursales_longitud":"-58.344031","promedio_incremento_pct":"0.35"},{"id_comercio":"3","comercio_razon_social":"DEHEZA S.A.I.C.F. e I.","id_sucursal":"1425","sucursales_nombre":"ITUZAINGO","sucursales_localidad":"ITUZAINGO","sucursales_latitud":"-34.63133","sucursales_longitud":"-58.67813","promedio_incremento_pct":"19521.26"},{"id_comercio":"3","comercio_razon_social":"DEHEZA S.A.I.C.F. e I.","id_sucursal":"1426","sucursales_nombre":"CIUDADELA","sucursales_localidad":"CIUDADELA","sucursales_latitud":"-34.629473","sucursales_longitud":"-58.558307","promedio_incremento_pct":"19577.04"},{"id_comercio":"3","comercio_razon_social":"DEHEZA S.A.I.C.F. e I.","id_sucursal":"1428","sucursales_nombre":"URQUIZA","sucursales_localidad":"ACASSUSO","sucursales_latitud":"-34.48157","sucursales_longitud":"-58.50573","promedio_incremento_pct":"0.35"},{"id_comercio":"3","comercio_razon_social":"DEHEZA S.A.I.C.F. e I.","id_sucursal":"1438","sucursales_nombre":"ACCESO NORTE RAMAL TIGRE -A TIGRE","sucursales_localidad":"SAN FERNANDO","sucursales_latitud":"-34.448633","sucursales_longitud":"-58.576591","promedio_incremento_pct":"19577.04"},{"id_comercio":"3","comercio_razon_social":"DEHEZA S.A.I.C.F. e I.","id_sucursal":"1439","sucursales_nombre":"ACCESO NORTE RAMAL TIGRE -DE TIGRE","sucursales_localidad":"SAN FERNANDO","sucursales_latitud":"-34.448712","sucursales_longitud":"-58.576949","promedio_incremento_pct":"19521.26"},{"id_comercio":"3","comercio_razon_social":"DEHEZA S.A.I.C.F. e I.","id_sucursal":"1450","sucursales_nombre":"INTERMEDANOS","sucursales_localidad":"PINAMAR","sucursales_latitud":"-37.108878","sucursales_longitud":"-56.877853","promedio_incremento_pct":"0.35"},{"id_comercio":"3","comercio_razon_social":"DEHEZA S.A.I.C.F. e I.","id_sucursal":"1469","sucursales_nombre":"ILLIA","sucursales_localidad":"CAPITAL FEDERAL","sucursales_latitud":"-34.576259","sucursales_longitud":"-58.390966","promedio_incremento_pct":"19577.04"},{"id_comercio":"3","comercio_razon_social":"DEHEZA S.A.I.C.F. e I.","id_sucursal":"1478","sucursales_nombre":"LELOIR","sucursales_localidad":"ITUZAINGO","sucursales_latitud":"-34.628829","sucursales_longitud":"-58.6882801","promedio_incremento_pct":"0.35"},{"id_comercio":"3","comercio_razon_social":"DEHEZA S.A.I.C.F. e I.","id_sucursal":"1482","sucursales_nombre":"MAZA","sucursales_localidad":"CAPITAL FEDERAL","sucursales_latitud":"-34.615778","sucursales_longitud":"-58.415528","promedio_incremento_pct":"0.35"},{"id_comercio":"3","comercio_razon_social":"DEHEZA S.A.I.C.F. e I.","id_sucursal":"1506","sucursales_nombre":"GRAL PAZ - NORTE","sucursales_localidad":"CAPITAL FEDERAL","sucursales_latitud":"-34.559454","sucursales_longitud":"-58.505028","promedio_incremento_pct":"19521.26"},{"id_comercio":"3","comercio_razon_social":"DEHEZA S.A.I.C.F. e I.","id_sucursal":"1507","sucursales_nombre":"GRAL PAZ - SUR","sucursales_localidad":"CAPITAL FEDERAL","sucursales_latitud":"-34.559976","sucursales_longitud":"-58.504540","promedio_incremento_pct":"19521.26"},{"id_comercio":"3","comercio_razon_social":"DEHEZA S.A.I.C.F. e I.","id_sucursal":"1539","sucursales_nombre":"24 DE NOVIEMBRE","sucursales_localidad":"CAPITAL FEDERAL","sucursales_latitud":"-34.620248","sucursales_longitud":"-58.411001","promedio_incremento_pct":"19520.63"},{"id_comercio":"3","comercio_razon_social":"DEHEZA S.A.I.C.F. e I.","id_sucursal":"1553","sucursales_nombre":"CDRO RIVADAVIA","sucursales_localidad":"CAPITAL FEDERAL","sucursales_latitud":"-34.541620","sucursales_longitud":"-58.463140","promedio_incremento_pct":"19521.26"},{"id_comercio":"3","comercio_razon_social":"DEHEZA S.A.I.C.F. e I.","id_sucursal":"1584","sucursales_nombre":"ARROYO SARANDI","sucursales_localidad":"AVELLANEDA","sucursales_latitud":"-34.677326","sucursales_longitud":"-58.331551","promedio_incremento_pct":"0.35"},{"id_comercio":"3","comercio_razon_social":"DEHEZA S.A.I.C.F. e I.","id_sucursal":"1682","sucursales_nombre":"LAS ARMAS","sucursales_localidad":"LAS ARMAS","sucursales_latitud":"-37.065288","sucursales_longitud":"-57.837571","promedio_incremento_pct":"19577.08"},{"id_comercio":"3","comercio_razon_social":"DEHEZA S.A.I.C.F. e I.","id_sucursal":"1695","sucursales_nombre":"DIAZ VELEZ","sucursales_localidad":"CAPITAL FEDERAL","sucursales_latitud":"-34.608907","sucursales_longitud":"-58.428940","promedio_incremento_pct":"0.35"},{"id_comercio":"3","comercio_razon_social":"DEHEZA S.A.I.C.F. e I.","id_sucursal":"1716","sucursales_nombre":"AUT EZEIZA-CAÑUELAS - MANO CAÑUELAS","sucursales_localidad":"TRISTAN SUAREZ","sucursales_latitud":"-34.86014","sucursales_longitud":"-58.56418","promedio_incremento_pct":"19577.08"},{"id_comercio":"3","comercio_razon_social":"DEHEZA S.A.I.C.F. e I.","id_sucursal":"1717","sucursales_nombre":"AUT EZEIZA-CAÑUELAS - MANO EZEIZA","sucursales_localidad":"TRISTAN SUAREZ","sucursales_latitud":"-34.861370","sucursales_longitud":"-58.565582","promedio_incremento_pct":"19577.08"},{"id_comercio":"3","comercio_razon_social":"DEHEZA S.A.I.C.F. e I.","id_sucursal":"1735","sucursales_nombre":"AUT BSAS-LA PLATA - A LA PLATA","sucursales_localidad":"BERAZATEGUI","sucursales_latitud":"-34.811905","sucursales_longitud":"-58.104034","promedio_incremento_pct":"19577.08"},{"id_comercio":"3","comercio_razon_social":"DEHEZA S.A.I.C.F. e I.","id_sucursal":"1736","sucursales_nombre":"AUT BSAS-LA PLATA - A BS AS","sucursales_localidad":"ENSENADA","sucursales_latitud":"-34.86586","sucursales_longitud":"-58.003415","promedio_incremento_pct":"19577.08"},{"id_comercio":"4","comercio_razon_social":"ESTACION LIMA S.A.","id_sucursal":"289","sucursales_nombre":"LIMA","sucursales_localidad":"CAPITAL FEDERAL","sucursales_latitud":"-34.617902","sucursales_longitud":"-58.38147","promedio_incremento_pct":"0.00"},{"id_comercio":"8","comercio_razon_social":"Mariano S.A.","id_sucursal":"1","sucursales_nombre":"Sucursal 1","sucursales_localidad":"CORDOBA","sucursales_latitud":"-31.443295","sucursales_longitud":"-64.148264","promedio_incremento_pct":"0.06"},{"id_comercio":"8","comercio_razon_social":"Mariano S.A.","id_sucursal":"2","sucursales_nombre":"Sucursal 2","sucursales_localidad":"CORDOBA","sucursales_latitud":"-31.379569","sucursales_longitud":"-64.147652","promedio_incremento_pct":"0.02"},{"id_comercio":"8","comercio_razon_social":"Mariano S.A.","id_sucursal":"3","sucursales_nombre":"Sucursal 3","sucursales_localidad":"CORDOBA","sucursales_latitud":"-31.365896","sucursales_longitud":"-64.16644","promedio_incremento_pct":"0.08"},{"id_comercio":"8","comercio_razon_social":"Mariano S.A.","id_sucursal":"4","sucursales_nombre":"Sucursal 4","sucursales_localidad":"jesus maria","sucursales_latitud":"-30.978745","sucursales_longitud":"-64.092456","promedio_incremento_pct":"0.00"},{"id_comercio":"8","comercio_razon_social":"Mariano S.A.","id_sucursal":"5","sucursales_nombre":"Sucursal 5","sucursales_localidad":"CORDOBA","sucursales_latitud":"-31.412738","sucursales_longitud":"-64.230768","promedio_incremento_pct":"0.07"},{"id_comercio":"8","comercio_razon_social":"Mariano S.A.","id_sucursal":"6","sucursales_nombre":"Sucursal 6","sucursales_localidad":"CRUZ DEL EJE","sucursales_latitud":"-30.724778","sucursales_longitud":"-64.80168","promedio_incremento_pct":"0.00"},{"id_comercio":"8","comercio_razon_social":"Mariano S.A.","id_sucursal":"7","sucursales_nombre":"Sucursal 7","sucursales_localidad":"CORDOBA","sucursales_latitud":"-31.457372","sucursales_longitud":"-64.200399","promedio_incremento_pct":"0.02"},{"id_comercio":"8","comercio_razon_social":"Mariano S.A.","id_sucursal":"8","sucursales_nombre":"Sucursal 8","sucursales_localidad":"Valle Hermoso","sucursales_latitud":"-31.108277","sucursales_longitud":"-64.484196","promedio_incremento_pct":"0.08"},{"id_comercio":"8","comercio_razon_social":"Mariano S.A.","id_sucursal":"9","sucursales_nombre":"Sucursal 9","sucursales_localidad":"jesus maria","sucursales_latitud":"-30.977255","sucursales_longitud":"-64.084407","promedio_incremento_pct":"0.02"},{"id_comercio":"8","comercio_razon_social":"Mariano S.A.","id_sucursal":"10","sucursales_nombre":"Sucursal 10","sucursales_localidad":"ARROYITO","sucursales_latitud":"-31.4229783","sucursales_longitud":"-63.0415044","promedio_incremento_pct":"0.05"},{"id_comercio":"8","comercio_razon_social":"Mariano S.A.","id_sucursal":"11","sucursales_nombre":"Sucursal 11","sucursales_localidad":"jesus maria","sucursales_latitud":"-30.98320655","sucursales_longitud":"-64.10665156","promedio_incremento_pct":"0.02"},{"id_comercio":"12","comercio_razon_social":"COTO CENTRO INTEGRAL DE COMERCIALIZACION S.A.","id_sucursal":"2","sucursales_nombre":"AV.SAN MARTIN","sucursales_localidad":"Paternal","sucursales_latitud":"-34.6048231","sucursales_longitud":"-58.4571361","promedio_incremento_pct":"0.00"},{"id_comercio":"12","comercio_razon_social":"COTO CENTRO INTEGRAL DE COMERCIALIZACION S.A.","id_sucursal":"6","sucursales_nombre":"AV. LA PLATA ","sucursales_localidad":"Pompeya","sucursales_latitud":"-34.64267","sucursales_longitud":"-58.422711","promedio_incremento_pct":"0.00"},{"id_comercio":"12","comercio_razon_social":"COTO CENTRO INTEGRAL DE COMERCIALIZACION S.A.","id_sucursal":"7","sucursales_nombre":"JUAN DE GARAY ","sucursales_localidad":"Parque Patricios","sucursales_latitud":"-34.628905","sucursales_longitud":"-58.402557","promedio_incremento_pct":"0.00"},{"id_comercio":"12","comercio_razon_social":"COTO CENTRO INTEGRAL DE COMERCIALIZACION S.A.","id_sucursal":"13","sucursales_nombre":"RUTA 3 ","sucursales_localidad":"Gonzalez Catan","sucursales_latitud":"-34.764146","sucursales_longitud":"-58.6200547","promedio_incremento_pct":"0.01"},{"id_comercio":"12","comercio_razon_social":"COTO CENTRO INTEGRAL DE COMERCIALIZACION S.A.","id_sucursal":"18","sucursales_nombre":"H.YRIGOYEN ","sucursales_localidad":"Once","sucursales_latitud":"-34.614634","sucursales_longitud":"-58.420517","promedio_incremento_pct":"0.00"},{"id_comercio":"12","comercio_razon_social":"COTO CENTRO INTEGRAL DE COMERCIALIZACION S.A.","id_sucursal":"19","sucursales_nombre":"CONSTITUCION ","sucursales_localidad":"Constitucion","sucursales_latitud":"-34.626433","sucursales_longitud":"-58.382215","promedio_incremento_pct":"0.00"},{"id_comercio":"12","comercio_razon_social":"COTO CENTRO INTEGRAL DE COMERCIALIZACION S.A.","id_sucursal":"20","sucursales_nombre":"AV EL CANO ","sucursales_localidad":"Belgrano","sucursales_latitud":"-34.578357","sucursales_longitud":"-58.460232","promedio_incremento_pct":"0.00"},{"id_comercio":"12","comercio_razon_social":"COTO CENTRO INTEGRAL DE COMERCIALIZACION S.A.","id_sucursal":"22","sucursales_nombre":"ELCANO ","sucursales_localidad":"Belgrano","sucursales_latitud":"-34.571895","sucursales_longitud":"-58.458683","promedio_incremento_pct":"0.00"},{"id_comercio":"12","comercio_razon_social":"COTO CENTRO INTEGRAL DE COMERCIALIZACION S.A.","id_sucursal":"24","sucursales_nombre":"SCALABRINI ORTIZ ","sucursales_localidad":"Palermo","sucursales_latitud":"-34.5902858","sucursales_longitud":"-58.4240622","promedio_incremento_pct":"0.00"},{"id_comercio":"12","comercio_razon_social":"COTO CENTRO INTEGRAL DE COMERCIALIZACION S.A.","id_sucursal":"25","sucursales_nombre":"SAN TELMO ","sucursales_localidad":"San Telmo","sucursales_latitud":"-34.6255187","sucursales_longitud":"-58.3736292","promedio_incremento_pct":"0.00"},{"id_comercio":"12","comercio_razon_social":"COTO CENTRO INTEGRAL DE COMERCIALIZACION S.A.","id_sucursal":"26","sucursales_nombre":"CERVINO ","sucursales_localidad":"Palermo","sucursales_latitud":"-34.580229","sucursales_longitud":"-58.408608","promedio_incremento_pct":"0.00"},{"id_comercio":"12","comercio_razon_social":"COTO CENTRO INTEGRAL DE COMERCIALIZACION S.A.","id_sucursal":"35","sucursales_nombre":"LOPEZ DE VEGA ","sucursales_localidad":"Villa Devoto","sucursales_latitud":"-34.618273","sucursales_longitud":"-58.519287","promedio_incremento_pct":"0.00"},{"id_comercio":"12","comercio_razon_social":"COTO CENTRO INTEGRAL DE COMERCIALIZACION S.A.","id_sucursal":"37","sucursales_nombre":"LUGANO ","sucursales_localidad":"Lugano","sucursales_latitud":"-34.687601","sucursales_longitud":"-58.47536","promedio_incremento_pct":"0.01"},{"id_comercio":"12","comercio_razon_social":"COTO CENTRO INTEGRAL DE COMERCIALIZACION S.A.","id_sucursal":"38","sucursales_nombre":"FLORIDA ","sucursales_localidad":"Florida","sucursales_latitud":"-34.533164","sucursales_longitud":"-58.5024536","promedio_incremento_pct":"0.34"},{"id_comercio":"12","comercio_razon_social":"COTO CENTRO INTEGRAL DE COMERCIALIZACION S.A.","id_sucursal":"39","sucursales_nombre":"EMILIO CASTRO ","sucursales_localidad":"Liniers","sucursales_latitud":"-34.656142","sucursales_longitud":"-58.524475","promedio_incremento_pct":"0.68"},{"id_comercio":"12","comercio_razon_social":"COTO CENTRO INTEGRAL DE COMERCIALIZACION S.A.","id_sucursal":"40","sucursales_nombre":"AV.DEL TRABAJO ","sucursales_localidad":"Flores Sur","sucursales_latitud":"-34.6380873","sucursales_longitud":"-58.4525728","promedio_incremento_pct":"0.50"},{"id_comercio":"12","comercio_razon_social":"COTO CENTRO INTEGRAL DE COMERCIALIZACION S.A.","id_sucursal":"41","sucursales_nombre":"DIAZ VELEZ ","sucursales_localidad":"Almagro","sucursales_latitud":"-34.6087141","sucursales_longitud":"-58.4309495","promedio_incremento_pct":"0.35"},{"id_comercio":"12","comercio_razon_social":"COTO CENTRO INTEGRAL DE COMERCIALIZACION S.A.","id_sucursal":"42","sucursales_nombre":"PARAGUAY ","sucursales_localidad":"Barrio Norte","sucursales_latitud":"-34.5970815","sucursales_longitud":"-58.4064955","promedio_incremento_pct":"0.43"},{"id_comercio":"12","comercio_razon_social":"COTO CENTRO INTEGRAL DE COMERCIALIZACION S.A.","id_sucursal":"43","sucursales_nombre":"BOEDO ","sucursales_localidad":"Boedo","sucursales_latitud":"-34.6221132","sucursales_longitud":"-58.4164336","promedio_incremento_pct":"0.20"},{"id_comercio":"12","comercio_razon_social":"COTO CENTRO INTEGRAL DE COMERCIALIZACION S.A.","id_sucursal":"44","sucursales_nombre":"MONROE ","sucursales_localidad":"Belgrano","sucursales_latitud":"-34.5635828","sucursales_longitud":"-58.4684123","promedio_incremento_pct":"1.34"},{"id_comercio":"12","comercio_razon_social":"COTO CENTRO INTEGRAL DE COMERCIALIZACION S.A.","id_sucursal":"45","sucursales_nombre":"CABILDO ","sucursales_localidad":"Belgrano","sucursales_latitud":"-34.5713409","sucursales_longitud":"-58.4420995","promedio_incremento_pct":"0.22"},{"id_comercio":"12","comercio_razon_social":"COTO CENTRO INTEGRAL DE COMERCIALIZACION S.A.","id_sucursal":"46","sucursales_nombre":"ONCE ","sucursales_localidad":"Once","sucursales_latitud":"-34.6101883","sucursales_longitud":"-58.406752","promedio_incremento_pct":"0.33"},{"id_comercio":"12","comercio_razon_social":"COTO CENTRO INTEGRAL DE COMERCIALIZACION S.A.","id_sucursal":"47","sucursales_nombre":"AMENABAR ","sucursales_localidad":"Belgrano","sucursales_latitud":"-34.5628202","sucursales_longitud":"-58.4588525","promedio_incremento_pct":"0.27"},{"id_comercio":"12","comercio_razon_social":"COTO CENTRO INTEGRAL DE COMERCIALIZACION S.A.","id_sucursal":"48","sucursales_nombre":"DIRECTORIO ","sucursales_localidad":"Flores","sucursales_latitud":"-34.634479","sucursales_longitud":"-58.4640708","promedio_incremento_pct":"0.31"},{"id_comercio":"12","comercio_razon_social":"COTO CENTRO INTEGRAL DE COMERCIALIZACION S.A.","id_sucursal":"49","sucursales_nombre":"MAR DE AJO ","sucursales_localidad":"Mar De Ajo","sucursales_latitud":"-36.7214462","sucursales_longitud":"-56.6768593","promedio_incremento_pct":"0.43"},{"id_comercio":"12","comercio_razon_social":"COTO CENTRO INTEGRAL DE COMERCIALIZACION S.A.","id_sucursal":"51","sucursales_nombre":"RAMOS MEJIA ","sucursales_localidad":"Ramos Mejia","sucursales_latitud":"-34.6402654","sucursales_longitud":"-58.5617807","promedio_incremento_pct":"0.19"},{"id_comercio":"12","comercio_razon_social":"COTO CENTRO INTEGRAL DE COMERCIALIZACION S.A.","id_sucursal":"52","sucursales_nombre":"SANABRIA ","sucursales_localidad":"Devoto","sucursales_latitud":"-34.6062442","sucursales_longitud":"-58.5106551","promedio_incremento_pct":"0.39"},{"id_comercio":"12","comercio_razon_social":"COTO CENTRO INTEGRAL DE COMERCIALIZACION S.A.","id_sucursal":"53","sucursales_nombre":"SANTOS LUGARES ","sucursales_localidad":"Santos Lugares","sucursales_latitud":"-34.6002123","sucursales_longitud":"-58.5446567","promedio_incremento_pct":"0.56"},{"id_comercio":"12","comercio_razon_social":"COTO CENTRO INTEGRAL DE COMERCIALIZACION S.A.","id_sucursal":"55","sucursales_nombre":"AVELLANEDA ","sucursales_localidad":"Floresta","sucursales_latitud":"-34.6290437","sucursales_longitud":"-58.481691","promedio_incremento_pct":"0.43"},{"id_comercio":"12","comercio_razon_social":"COTO CENTRO INTEGRAL DE COMERCIALIZACION S.A.","id_sucursal":"56","sucursales_nombre":"HONDURAS ","sucursales_localidad":"Palermo","sucursales_latitud":"-34.5941284","sucursales_longitud":"-58.417548","promedio_incremento_pct":"0.99"},{"id_comercio":"12","comercio_razon_social":"COTO CENTRO INTEGRAL DE COMERCIALIZACION S.A.","id_sucursal":"57","sucursales_nombre":"SAN MARTIN ","sucursales_localidad":"San Martin","sucursales_latitud":"-34.5791981","sucursales_longitud":"-58.5361636","promedio_incremento_pct":"0.37"},{"id_comercio":"12","comercio_razon_social":"COTO CENTRO INTEGRAL DE COMERCIALIZACION S.A.","id_sucursal":"58","sucursales_nombre":"VIAMONTE ","sucursales_localidad":"Tribunales","sucursales_latitud":"-34.6006805","sucursales_longitud":"-58.3891667","promedio_incremento_pct":"0.35"},{"id_comercio":"12","comercio_razon_social":"COTO CENTRO INTEGRAL DE COMERCIALIZACION S.A.","id_sucursal":"59","sucursales_nombre":"URQUIZA ","sucursales_localidad":"Villa Urquiza","sucursales_latitud":"-34.5740766","sucursales_longitud":"-58.4859548","promedio_incremento_pct":"0.36"},{"id_comercio":"12","comercio_razon_social":"COTO CENTRO INTEGRAL DE COMERCIALIZACION S.A.","id_sucursal":"60","sucursales_nombre":"ALBERDI ","sucursales_localidad":"Flores","sucursales_latitud":"-34.6281676","sucursales_longitud":"-58.453314","promedio_incremento_pct":"0.20"},{"id_comercio":"12","comercio_razon_social":"COTO CENTRO INTEGRAL DE COMERCIALIZACION S.A.","id_sucursal":"61","sucursales_nombre":"SPINETTO ","sucursales_localidad":"Once","sucursales_latitud":"-34.6119916","sucursales_longitud":"-58.3989244","promedio_incremento_pct":"0.20"},{"id_comercio":"12","comercio_razon_social":"COTO CENTRO INTEGRAL DE COMERCIALIZACION S.A.","id_sucursal":"63","sucursales_nombre":"POMPEYA ","sucursales_localidad":"Pompeya","sucursales_latitud":"-34.654144","sucursales_longitud":"-58.4196788","promedio_incremento_pct":"0.96"},{"id_comercio":"12","comercio_razon_social":"COTO CENTRO INTEGRAL DE COMERCIALIZACION S.A.","id_sucursal":"64","sucursales_nombre":"SARANDI ","sucursales_localidad":"Sarandi","sucursales_latitud":"-34.6831706","sucursales_longitud":"-58.3429383","promedio_incremento_pct":"0.96"},{"id_comercio":"12","comercio_razon_social":"COTO CENTRO INTEGRAL DE COMERCIALIZACION S.A.","id_sucursal":"65","sucursales_nombre":"QUILMES ","sucursales_localidad":"Quilmes","sucursales_latitud":"-34.7200918","sucursales_longitud":"-58.2627514","promedio_incremento_pct":"0.21"},{"id_comercio":"12","comercio_razon_social":"COTO CENTRO INTEGRAL DE COMERCIALIZACION S.A.","id_sucursal":"66","sucursales_nombre":"MAURE ","sucursales_localidad":"Belgrano","sucursales_latitud":"-34.5668975","sucursales_longitud":"-58.4361596","promedio_incremento_pct":"0.25"},{"id_comercio":"12","comercio_razon_social":"COTO CENTRO INTEGRAL DE COMERCIALIZACION S.A.","id_sucursal":"67","sucursales_nombre":"ALBARELLOS ","sucursales_localidad":"Acassuso","sucursales_latitud":"-34.4802448","sucursales_longitud":"-58.5056248","promedio_incremento_pct":"0.25"},{"id_comercio":"12","comercio_razon_social":"COTO CENTRO INTEGRAL DE COMERCIALIZACION S.A.","id_sucursal":"68","sucursales_nombre":"LAS LOMAS ","sucursales_localidad":"Las Lomas","sucursales_latitud":"-34.4808246","sucursales_longitud":"-58.5376011","promedio_incremento_pct":"0.27"},{"id_comercio":"12","comercio_razon_social":"COTO CENTRO INTEGRAL DE COMERCIALIZACION S.A.","id_sucursal":"69","sucursales_nombre":"PUNTA CHICA ","sucursales_localidad":"Punta Chica","sucursales_latitud":"-34.4524395","sucursales_longitud":"-58.527515","promedio_incremento_pct":"0.26"},{"id_comercio":"12","comercio_razon_social":"COTO CENTRO INTEGRAL DE COMERCIALIZACION S.A.","id_sucursal":"70","sucursales_nombre":"SAN ISIDRO TREN DELA COSTA ","sucursales_localidad":"San Isidro","sucursales_latitud":"-34.4654523","sucursales_longitud":"-58.5100921","promedio_incremento_pct":"0.30"},{"id_comercio":"12","comercio_razon_social":"COTO CENTRO INTEGRAL DE COMERCIALIZACION S.A.","id_sucursal":"74","sucursales_nombre":"GALLO ","sucursales_localidad":"Almagro","sucursales_latitud":"-34.6056255","sucursales_longitud":"-58.4135635","promedio_incremento_pct":"0.33"},{"id_comercio":"12","comercio_razon_social":"COTO CENTRO INTEGRAL DE COMERCIALIZACION S.A.","id_sucursal":"75","sucursales_nombre":"LANUS ","sucursales_localidad":"Lanus","sucursales_latitud":"-34.6904098","sucursales_longitud":"-58.4205743","promedio_incremento_pct":"4.70"},{"id_comercio":"12","comercio_razon_social":"COTO CENTRO INTEGRAL DE COMERCIALIZACION S.A.","id_sucursal":"78","sucursales_nombre":"PICHINCHA ","sucursales_localidad":"San Cristobal","sucursales_latitud":"-34.6162451","sucursales_longitud":"-58.3982386","promedio_incremento_pct":"0.17"},{"id_comercio":"12","comercio_razon_social":"COTO CENTRO INTEGRAL DE COMERCIALIZACION S.A.","id_sucursal":"80","sucursales_nombre":"FRENCH ","sucursales_localidad":"Capital Federal","sucursales_latitud":"-34.5907212","sucursales_longitud":"-58.399403","promedio_incremento_pct":"1.33"},{"id_comercio":"12","comercio_razon_social":"COTO CENTRO INTEGRAL DE COMERCIALIZACION S.A.","id_sucursal":"82","sucursales_nombre":"MURILLO ","sucursales_localidad":"Villa Crespo","sucursales_latitud":"-34.6017899","sucursales_longitud":"-58.44255","promedio_incremento_pct":"0.32"},{"id_comercio":"12","comercio_razon_social":"COTO CENTRO INTEGRAL DE COMERCIALIZACION S.A.","id_sucursal":"83","sucursales_nombre":"VILLA LURO ","sucursales_localidad":"Villa Luro","sucursales_latitud":"-34.6379202","sucursales_longitud":"-58.502751","promedio_incremento_pct":"0.36"},{"id_comercio":"12","comercio_razon_social":"COTO CENTRO INTEGRAL DE COMERCIALIZACION S.A.","id_sucursal":"84","sucursales_nombre":"CASTRO BARROS ","sucursales_localidad":"Almagro","sucursales_latitud":"-34.6118491","sucursales_longitud":"-58.4209021","promedio_incremento_pct":"0.31"},{"id_comercio":"12","comercio_razon_social":"COTO CENTRO INTEGRAL DE COMERCIALIZACION S.A.","id_sucursal":"85","sucursales_nombre":"EVA PERON ","sucursales_localidad":"Mataderos","sucursales_latitud":"-34.6561036","sucursales_longitud":"-58.4767969","promedio_incremento_pct":"1.07"},{"id_comercio":"12","comercio_razon_social":"COTO CENTRO INTEGRAL DE COMERCIALIZACION S.A.","id_sucursal":"88","sucursales_nombre":"AV. LA PLATA ","sucursales_localidad":"Caballito","sucursales_latitud":"-34.621309","sucursales_longitud":"-58.428189","promedio_incremento_pct":"0.00"},{"id_comercio":"12","comercio_razon_social":"COTO CENTRO INTEGRAL DE COMERCIALIZACION S.A.","id_sucursal":"90","sucursales_nombre":"GEORGALOS ","sucursales_localidad":"Devoto","sucursales_latitud":"-34.6204884","sucursales_longitud":"-58.4992502","promedio_incremento_pct":"1.42"},{"id_comercio":"12","comercio_razon_social":"COTO CENTRO INTEGRAL DE COMERCIALIZACION S.A.","id_sucursal":"91","sucursales_nombre":"ABASTO ","sucursales_localidad":"Abasto","sucursales_latitud":"-34.6027526","sucursales_longitud":"-58.4114132","promedio_incremento_pct":"1.21"},{"id_comercio":"12","comercio_razon_social":"COTO CENTRO INTEGRAL DE COMERCIALIZACION S.A.","id_sucursal":"92","sucursales_nombre":"VTE LOPEZ ","sucursales_localidad":"Vte Lopez","sucursales_latitud":"-34.5215759","sucursales_longitud":"-58.4850089","promedio_incremento_pct":"1.36"},{"id_comercio":"12","comercio_razon_social":"COTO CENTRO INTEGRAL DE COMERCIALIZACION S.A.","id_sucursal":"94","sucursales_nombre":"TAPIALES ","sucursales_localidad":"Tapiales","sucursales_latitud":"-34.7030125","sucursales_longitud":"-58.4995605","promedio_incremento_pct":"0.00"},{"id_comercio":"12","comercio_razon_social":"COTO CENTRO INTEGRAL DE COMERCIALIZACION S.A.","id_sucursal":"95","sucursales_nombre":"LA REINA","sucursales_localidad":"Rosario","sucursales_latitud":"-32.9446397","sucursales_longitud":"-60.6778049","promedio_incremento_pct":"0.83"},{"id_comercio":"12","comercio_razon_social":"COTO CENTRO INTEGRAL DE COMERCIALIZACION S.A.","id_sucursal":"96","sucursales_nombre":"FISHERTON ROSARIO ","sucursales_localidad":"Fisherton","sucursales_latitud":"-32.9298072","sucursales_longitud":"-60.7249756","promedio_incremento_pct":"0.02"},{"id_comercio":"12","comercio_razon_social":"COTO CENTRO INTEGRAL DE COMERCIALIZACION S.A.","id_sucursal":"97","sucursales_nombre":"ROSARIO","sucursales_localidad":"Rosario","sucursales_latitud":"-32.9416062","sucursales_longitud":"-60.6448748","promedio_incremento_pct":"0.62"},{"id_comercio":"12","comercio_razon_social":"COTO CENTRO INTEGRAL DE COMERCIALIZACION S.A.","id_sucursal":"99","sucursales_nombre":"ROSARIO","sucursales_localidad":"Rosario","sucursales_latitud":"-32.9514498","sucursales_longitud":"-60.6467395","promedio_incremento_pct":"0.01"},{"id_comercio":"12","comercio_razon_social":"COTO CENTRO INTEGRAL DE COMERCIALIZACION S.A.","id_sucursal":"101","sucursales_nombre":"AVELLANEDA ","sucursales_localidad":"Avellaneda","sucursales_latitud":"-34.6650066","sucursales_longitud":"-58.3623175","promedio_incremento_pct":"0.00"},{"id_comercio":"12","comercio_razon_social":"COTO CENTRO INTEGRAL DE COMERCIALIZACION S.A.","id_sucursal":"103","sucursales_nombre":"IVONNE ","sucursales_localidad":"Capital Federal","sucursales_latitud":"-34.6121149","sucursales_longitud":"-58.4550437","promedio_incremento_pct":"0.00"},{"id_comercio":"12","comercio_razon_social":"COTO CENTRO INTEGRAL DE COMERCIALIZACION S.A.","id_sucursal":"104","sucursales_nombre":"QUILMES ","sucursales_localidad":"Quilmes","sucursales_latitud":"-34.7437163","sucursales_longitud":"-58.2891868","promedio_incremento_pct":"0.00"},{"id_comercio":"12","comercio_razon_social":"COTO CENTRO INTEGRAL DE COMERCIALIZACION S.A.","id_sucursal":"105","sucursales_nombre":"MONTE GRANDE ","sucursales_localidad":"Monte Grande","sucursales_latitud":"-34.814703","sucursales_longitud":"-58.456994","promedio_incremento_pct":"0.00"},{"id_comercio":"12","comercio_razon_social":"COTO CENTRO INTEGRAL DE COMERCIALIZACION S.A.","id_sucursal":"107","sucursales_nombre":"TEMPERLEY ","sucursales_localidad":"Lomas De Zamora","sucursales_latitud":"-34.7817272","sucursales_longitud":"-58.4067065","promedio_incremento_pct":"0.00"},{"id_comercio":"12","comercio_razon_social":"COTO CENTRO INTEGRAL DE COMERCIALIZACION S.A.","id_sucursal":"108","sucursales_nombre":"CABILDO ","sucursales_localidad":"Capital Federal","sucursales_latitud":"-34.5458941","sucursales_longitud":"-58.4705622","promedio_incremento_pct":"0.00"},{"id_comercio":"12","comercio_razon_social":"COTO CENTRO INTEGRAL DE COMERCIALIZACION S.A.","id_sucursal":"109","sucursales_nombre":"PARANA ","sucursales_localidad":"Parana","sucursales_latitud":"-31.7419371","sucursales_longitud":"-60.5387651","promedio_incremento_pct":"0.08"},{"id_comercio":"12","comercio_razon_social":"COTO CENTRO INTEGRAL DE COMERCIALIZACION S.A.","id_sucursal":"110","sucursales_nombre":"LUGANO ","sucursales_localidad":"V Illa Lugano","sucursales_latitud":"-34.6845178","sucursales_longitud":"-58.4641447","promedio_incremento_pct":"0.00"},{"id_comercio":"12","comercio_razon_social":"COTO CENTRO INTEGRAL DE COMERCIALIZACION S.A.","id_sucursal":"111","sucursales_nombre":"SAN MARTIN","sucursales_localidad":"San Martin","sucursales_latitud":"-34.5810538","sucursales_longitud":"-58.5418252","promedio_incremento_pct":"0.00"},{"id_comercio":"12","comercio_razon_social":"COTO CENTRO INTEGRAL DE COMERCIALIZACION S.A.","id_sucursal":"116","sucursales_nombre":"YERBAL ","sucursales_localidad":"Caballito","sucursales_latitud":"-34.62116","sucursales_longitud":"-58.445992","promedio_incremento_pct":"0.01"},{"id_comercio":"12","comercio_razon_social":"COTO CENTRO INTEGRAL DE COMERCIALIZACION S.A.","id_sucursal":"117","sucursales_nombre":"CAMPANA ","sucursales_localidad":"Campana","sucursales_latitud":"-34.1659506","sucursales_longitud":"-58.9611328","promedio_incremento_pct":"0.00"},{"id_comercio":"12","comercio_razon_social":"COTO CENTRO INTEGRAL DE COMERCIALIZACION S.A.","id_sucursal":"118","sucursales_nombre":"SANTA FE ","sucursales_localidad":"Ciudad De Santa Fe","sucursales_latitud":"-31.637308","sucursales_longitud":"-60.7017017","promedio_incremento_pct":"0.10"},{"id_comercio":"12","comercio_razon_social":"COTO CENTRO INTEGRAL DE COMERCIALIZACION S.A.","id_sucursal":"121","sucursales_nombre":"LARRAZABAL ","sucursales_localidad":"Lugano","sucursales_latitud":"-34.671088","sucursales_longitud":"-58.47915","promedio_incremento_pct":"0.00"},{"id_comercio":"12","comercio_razon_social":"COTO CENTRO INTEGRAL DE COMERCIALIZACION S.A.","id_sucursal":"123","sucursales_nombre":"BELLA VISTA ","sucursales_localidad":"Bella Vista","sucursales_latitud":"-34.5715475","sucursales_longitud":"-58.6833252","promedio_incremento_pct":"0.00"},{"id_comercio":"12","comercio_razon_social":"COTO CENTRO INTEGRAL DE COMERCIALIZACION S.A.","id_sucursal":"124","sucursales_nombre":"SAN JUAN ","sucursales_localidad":"Capital Federal","sucursales_latitud":"-34.6230367","sucursales_longitud":"-58.3959072","promedio_incremento_pct":"0.00"},{"id_comercio":"12","comercio_razon_social":"COTO CENTRO INTEGRAL DE COMERCIALIZACION S.A.","id_sucursal":"125","sucursales_nombre":"LOPE DE VEGA ","sucursales_localidad":"Cdad. De Bs.As","sucursales_latitud":"-34.623834","sucursales_longitud":"-58.512072","promedio_incremento_pct":"0.56"},{"id_comercio":"12","comercio_razon_social":"COTO CENTRO INTEGRAL DE COMERCIALIZACION S.A.","id_sucursal":"129","sucursales_nombre":"CIUDADELA ","sucursales_localidad":"Ciudadela","sucursales_latitud":"-34.6287238","sucursales_longitud":"-58.5488933","promedio_incremento_pct":"0.76"},{"id_comercio":"12","comercio_razon_social":"COTO CENTRO INTEGRAL DE COMERCIALIZACION S.A.","id_sucursal":"130","sucursales_nombre":"BERNAL ","sucursales_localidad":"Bernal","sucursales_latitud":"-34.719142","sucursales_longitud":"-58.2913273","promedio_incremento_pct":"0.28"},{"id_comercio":"12","comercio_razon_social":"COTO CENTRO INTEGRAL DE COMERCIALIZACION S.A.","id_sucursal":"131","sucursales_nombre":"JOSE C. PAZ ","sucursales_localidad":"Jose C Paz","sucursales_latitud":"-34.519576","sucursales_longitud":"-58.7531003","promedio_incremento_pct":"0.20"},{"id_comercio":"12","comercio_razon_social":"COTO CENTRO INTEGRAL DE COMERCIALIZACION S.A.","id_sucursal":"136","sucursales_nombre":"PEDRO GOYENA ","sucursales_localidad":"Capital Federal","sucursales_latitud":"-34.6259327","sucursales_longitud":"-58.4355294","promedio_incremento_pct":"0.38"},{"id_comercio":"12","comercio_razon_social":"COTO CENTRO INTEGRAL DE COMERCIALIZACION S.A.","id_sucursal":"149","sucursales_nombre":"LA PLATA ","sucursales_localidad":"La Plata","sucursales_latitud":"-34.9132587","sucursales_longitud":"-57.9601721","promedio_incremento_pct":"0.34"},{"id_comercio":"12","comercio_razon_social":"COTO CENTRO INTEGRAL DE COMERCIALIZACION S.A.","id_sucursal":"151","sucursales_nombre":"ASAMBLEA ","sucursales_localidad":"Parque Chacabuco","sucursales_latitud":"-34.6358296","sucursales_longitud":"-58.4415417","promedio_incremento_pct":"0.23"},{"id_comercio":"12","comercio_razon_social":"COTO CENTRO INTEGRAL DE COMERCIALIZACION S.A.","id_sucursal":"153","sucursales_nombre":"JONTE ","sucursales_localidad":"Capital Federal","sucursales_latitud":"-34.6073757","sucursales_longitud":"-58.477492","promedio_incremento_pct":"0.26"},{"id_comercio":"12","comercio_razon_social":"COTO CENTRO INTEGRAL DE COMERCIALIZACION S.A.","id_sucursal":"154","sucursales_nombre":"ESCOBAR ","sucursales_localidad":"Escobar","sucursales_latitud":"-34.3456017","sucursales_longitud":"-58.7928537","promedio_incremento_pct":"0.27"},{"id_comercio":"12","comercio_razon_social":"COTO CENTRO INTEGRAL DE COMERCIALIZACION S.A.","id_sucursal":"155","sucursales_nombre":"155 HIGHLAND PARK ","sucursales_localidad":"Pilar","sucursales_latitud":"-34.419958","sucursales_longitud":"-58.794678","promedio_incremento_pct":"0.48"},{"id_comercio":"12","comercio_razon_social":"COTO CENTRO INTEGRAL DE COMERCIALIZACION S.A.","id_sucursal":"158","sucursales_nombre":"CHARCAS ","sucursales_localidad":"Capital Federal","sucursales_latitud":"-34.5924706","sucursales_longitud":"-58.4111036","promedio_incremento_pct":"0.20"},{"id_comercio":"12","comercio_razon_social":"COTO CENTRO INTEGRAL DE COMERCIALIZACION S.A.","id_sucursal":"159","sucursales_nombre":"MITRE ","sucursales_localidad":"Capital Federal","sucursales_latitud":"-34.6077047","sucursales_longitud":"-58.3879012","promedio_incremento_pct":"0.34"},{"id_comercio":"12","comercio_razon_social":"COTO CENTRO INTEGRAL DE COMERCIALIZACION S.A.","id_sucursal":"160","sucursales_nombre":"SADOS ","sucursales_localidad":"Capital Federal","sucursales_latitud":"-34.5850445","sucursales_longitud":"-58.372698","promedio_incremento_pct":"0.19"},{"id_comercio":"12","comercio_razon_social":"COTO CENTRO INTEGRAL DE COMERCIALIZACION S.A.","id_sucursal":"162","sucursales_nombre":"TORTUGUITAS ","sucursales_localidad":"Pilar","sucursales_latitud":"-34.4620027","sucursales_longitud":"-58.7601993","promedio_incremento_pct":"0.47"},{"id_comercio":"12","comercio_razon_social":"COTO CENTRO INTEGRAL DE COMERCIALIZACION S.A.","id_sucursal":"163","sucursales_nombre":"JUNIN ","sucursales_localidad":"Capital Federal","sucursales_latitud":"-34.5960054","sucursales_longitud":"-58.3973971","promedio_incremento_pct":"0.37"},{"id_comercio":"12","comercio_razon_social":"COTO CENTRO INTEGRAL DE COMERCIALIZACION S.A.","id_sucursal":"164","sucursales_nombre":"VILLA BALLESTER ","sucursales_localidad":"Villa Ballester","sucursales_latitud":"-34.5553723","sucursales_longitud":"-58.5583111","promedio_incremento_pct":"0.43"},{"id_comercio":"12","comercio_razon_social":"COTO CENTRO INTEGRAL DE COMERCIALIZACION S.A.","id_sucursal":"165","sucursales_nombre":"ROSARIO TALLERES ","sucursales_localidad":"Rosario","sucursales_latitud":"-32.9265135","sucursales_longitud":"-60.6720475","promedio_incremento_pct":"0.21"},{"id_comercio":"12","comercio_razon_social":"COTO CENTRO INTEGRAL DE COMERCIALIZACION S.A.","id_sucursal":"167","sucursales_nombre":"NAZCA ","sucursales_localidad":"Capital Federal","sucursales_latitud":"-34.6189821","sucursales_longitud":"-58.4754368","promedio_incremento_pct":"0.00"},{"id_comercio":"12","comercio_razon_social":"COTO CENTRO INTEGRAL DE COMERCIALIZACION S.A.","id_sucursal":"168","sucursales_nombre":"VILLA CRESPO ","sucursales_localidad":"Capital Federal","sucursales_latitud":"-34.5951411","sucursales_longitud":"-58.443905","promedio_incremento_pct":"0.00"},{"id_comercio":"12","comercio_razon_social":"COTO CENTRO INTEGRAL DE COMERCIALIZACION S.A.","id_sucursal":"170","sucursales_nombre":"LIBERTADOR ","sucursales_localidad":"Capital Federal","sucursales_latitud":"-34.5491869","sucursales_longitud":"-58.4544449","promedio_incremento_pct":"0.00"},{"id_comercio":"12","comercio_razon_social":"COTO CENTRO INTEGRAL DE COMERCIALIZACION S.A.","id_sucursal":"171","sucursales_nombre":"TRISTAN SUAREZ ","sucursales_localidad":"Ezeiza","sucursales_latitud":"-34.893323","sucursales_longitud":"-58.571979","promedio_incremento_pct":"0.00"},{"id_comercio":"12","comercio_razon_social":"COTO CENTRO INTEGRAL DE COMERCIALIZACION S.A.","id_sucursal":"174","sucursales_nombre":" CULLEN ","sucursales_localidad":"Capital Federal","sucursales_latitud":"-34.5728529","sucursales_longitud":"-58.4878818","promedio_incremento_pct":"0.00"},{"id_comercio":"12","comercio_razon_social":"COTO CENTRO INTEGRAL DE COMERCIALIZACION S.A.","id_sucursal":"175","sucursales_nombre":" PTE. PERON ","sucursales_localidad":"Capital Federal","sucursales_latitud":"-34.6071216","sucursales_longitud":"-58.3960221","promedio_incremento_pct":"0.00"},{"id_comercio":"12","comercio_razon_social":"COTO CENTRO INTEGRAL DE COMERCIALIZACION S.A.","id_sucursal":"176","sucursales_nombre":" TEODORO GARCIA ","sucursales_localidad":"Capital Federal","sucursales_latitud":"-34.5698358","sucursales_longitud":"-58.4459054","promedio_incremento_pct":"0.00"},{"id_comercio":"12","comercio_razon_social":"COTO CENTRO INTEGRAL DE COMERCIALIZACION S.A.","id_sucursal":"178","sucursales_nombre":"MADARIAGA ","sucursales_localidad":"Gral Madariaga","sucursales_latitud":"-37.185485","sucursales_longitud":"-56.951625","promedio_incremento_pct":"0.05"},{"id_comercio":"12","comercio_razon_social":"COTO CENTRO INTEGRAL DE COMERCIALIZACION S.A.","id_sucursal":"179","sucursales_nombre":"SANTA FE PUERTO ","sucursales_localidad":"Cuidad De Santa Fe","sucursales_latitud":"-31.6490499","sucursales_longitud":"-60.7039408","promedio_incremento_pct":"0.08"},{"id_comercio":"12","comercio_razon_social":"COTO CENTRO INTEGRAL DE COMERCIALIZACION S.A.","id_sucursal":"180","sucursales_nombre":"SAN PEDRITO ","sucursales_localidad":"Capital Federal","sucursales_latitud":"-34.6316975","sucursales_longitud":"-58.46921090000","promedio_incremento_pct":"0.00"},{"id_comercio":"12","comercio_razon_social":"COTO CENTRO INTEGRAL DE COMERCIALIZACION S.A.","id_sucursal":"181","sucursales_nombre":"SAAVEDRA ","sucursales_localidad":"Saavedra","sucursales_latitud":"-34.5549061","sucursales_longitud":"-58.4870293","promedio_incremento_pct":"0.19"},{"id_comercio":"12","comercio_razon_social":"COTO CENTRO INTEGRAL DE COMERCIALIZACION S.A.","id_sucursal":"182","sucursales_nombre":"NORDELTA                                                    ","sucursales_localidad":"Tigre","sucursales_latitud":"-34.40348","sucursales_longitud":"-58.630557","promedio_incremento_pct":"1.84"},{"id_comercio":"12","comercio_razon_social":"COTO CENTRO INTEGRAL DE COMERCIALIZACION S.A.","id_sucursal":"183","sucursales_nombre":" BANFIELD ","sucursales_localidad":"Banfield","sucursales_latitud":"-34.7494248","sucursales_longitud":"-58.4002232","promedio_incremento_pct":"0.29"},{"id_comercio":"12","comercio_razon_social":"COTO CENTRO INTEGRAL DE COMERCIALIZACION S.A.","id_sucursal":"184","sucursales_nombre":"TORTUGAS ","sucursales_localidad":"Malvinas Argentinas","sucursales_latitud":"-34.4531158","sucursales_longitud":"-58.7307037","promedio_incremento_pct":"0.19"},{"id_comercio":"12","comercio_razon_social":"COTO CENTRO INTEGRAL DE COMERCIALIZACION S.A.","id_sucursal":"185","sucursales_nombre":"NEUQUEN ","sucursales_localidad":"Neuquen","sucursales_latitud":"-38.942149918","sucursales_longitud":"-68.06446909","promedio_incremento_pct":"4.84"},{"id_comercio":"12","comercio_razon_social":"COTO CENTRO INTEGRAL DE COMERCIALIZACION S.A.","id_sucursal":"186","sucursales_nombre":"LANUS ","sucursales_localidad":"Lanus","sucursales_latitud":"-34.7269341","sucursales_longitud":"-58.3956649","promedio_incremento_pct":"3.25"},{"id_comercio":"12","comercio_razon_social":"COTO CENTRO INTEGRAL DE COMERCIALIZACION S.A.","id_sucursal":"188","sucursales_nombre":"MUNRO","sucursales_localidad":"Vicente Lopez","sucursales_latitud":"-34.5239629","sucursales_longitud":"-58.5208208","promedio_incremento_pct":"0.21"},{"id_comercio":"12","comercio_razon_social":"COTO CENTRO INTEGRAL DE COMERCIALIZACION S.A.","id_sucursal":"189","sucursales_nombre":"EZEIZA ","sucursales_localidad":"Ezeiza","sucursales_latitud":"-34.8440028","sucursales_longitud":"-58.507952","promedio_incremento_pct":"0.22"},{"id_comercio":"12","comercio_razon_social":"COTO CENTRO INTEGRAL DE COMERCIALIZACION S.A.","id_sucursal":"192","sucursales_nombre":"LA HORQUETA ","sucursales_localidad":"La Horqueta","sucursales_latitud":"-34.474499","sucursales_longitud":"-58.574853","promedio_incremento_pct":"0.19"},{"id_comercio":"12","comercio_razon_social":"COTO CENTRO INTEGRAL DE COMERCIALIZACION S.A.","id_sucursal":"197","sucursales_nombre":"GARIN ","sucursales_localidad":"Garin","sucursales_latitud":"-34.4179366","sucursales_longitud":"-58.7255946","promedio_incremento_pct":"0.22"},{"id_comercio":"12","comercio_razon_social":"COTO CENTRO INTEGRAL DE COMERCIALIZACION S.A.","id_sucursal":"199","sucursales_nombre":"CASTELAR ","sucursales_localidad":"Castelar","sucursales_latitud":"-34.640349","sucursales_longitud":"-58.655782","promedio_incremento_pct":"0.23"},{"id_comercio":"12","comercio_razon_social":"COTO CENTRO INTEGRAL DE COMERCIALIZACION S.A.","id_sucursal":"203","sucursales_nombre":"BOTANICO ","sucursales_localidad":"Barrio Norte","sucursales_latitud":"-34.5847845","sucursales_longitud":"-58.4165247","promedio_incremento_pct":"0.14"},{"id_comercio":"12","comercio_razon_social":"COTO CENTRO INTEGRAL DE COMERCIALIZACION S.A.","id_sucursal":"204","sucursales_nombre":"MAR DEL TUYU ","sucursales_localidad":"General Lavalle","sucursales_latitud":"-36.58216639","sucursales_longitud":"-56.71463675","promedio_incremento_pct":"0.29"},{"id_comercio":"12","comercio_razon_social":"COTO CENTRO INTEGRAL DE COMERCIALIZACION S.A.","id_sucursal":"208","sucursales_nombre":"MERLO                                                       ","sucursales_localidad":"San Antonio De Padua","sucursales_latitud":"-34.6668202","sucursales_longitud":"-58.703197","promedio_incremento_pct":"0.15"},{"id_comercio":"12","comercio_razon_social":"COTO CENTRO INTEGRAL DE COMERCIALIZACION S.A.","id_sucursal":"209","sucursales_nombre":"MENDOZA ","sucursales_localidad":"Mendoza","sucursales_latitud":"-32.871591","sucursales_longitud":"-68.843574","promedio_incremento_pct":"0.13"},{"id_comercio":"12","comercio_razon_social":"COTO CENTRO INTEGRAL DE COMERCIALIZACION S.A.","id_sucursal":"215","sucursales_nombre":"MORON ","sucursales_localidad":"Moron","sucursales_latitud":"-34.6502131","sucursales_longitud":"-58.6264209","promedio_incremento_pct":"0.13"},{"id_comercio":"12","comercio_razon_social":"COTO CENTRO INTEGRAL DE COMERCIALIZACION S.A.","id_sucursal":"219","sucursales_nombre":"MORENO                                                      ","sucursales_localidad":"Moreno","sucursales_latitud":"-34.6407405","sucursales_longitud":"-58.79411649999","promedio_incremento_pct":"0.12"},{"id_comercio":"12","comercio_razon_social":"COTO CENTRO INTEGRAL DE COMERCIALIZACION S.A.","id_sucursal":"220","sucursales_nombre":"BARRACAS","sucursales_localidad":"Caba","sucursales_latitud":"-34.6320834","sucursales_longitud":"-58.3760678","promedio_incremento_pct":"0.15"},{"id_comercio":"12","comercio_razon_social":"COTO CENTRO INTEGRAL DE COMERCIALIZACION S.A.","id_sucursal":"235","sucursales_nombre":"QUILMES CENTRO                                              ","sucursales_localidad":"Quilmes","sucursales_latitud":"-34.7247168","sucursales_longitud":"-58.25613889999","promedio_incremento_pct":"0.17"},{"id_comercio":"13","comercio_razon_social":"Cooperativa Obrera Limitada de Consumo y Vivienda","id_sucursal":"1","sucursales_nombre":"White","sucursales_localidad":"Ingeniero White","sucursales_latitud":"-38.782990385228224","sucursales_longitud":"-62.265877433204594","promedio_incremento_pct":"3.50"},{"id_comercio":"13","comercio_razon_social":"Cooperativa Obrera Limitada de Consumo y Vivienda","id_sucursal":"2","sucursales_nombre":"Villa Mitre","sucursales_localidad":"Bahía Blanca","sucursales_latitud":"-38.728791630262535","sucursales_longitud":"-62.2442264146805","promedio_incremento_pct":"3.07"},{"id_comercio":"13","comercio_razon_social":"Cooperativa Obrera Limitada de Consumo y Vivienda","id_sucursal":"11","sucursales_nombre":"Villa Rosas","sucursales_localidad":"Bahía Blanca","sucursales_latitud":"-38.754831697437496","sucursales_longitud":"-62.265606122684574","promedio_incremento_pct":"4.15"},{"id_comercio":"13","comercio_razon_social":"Cooperativa Obrera Limitada de Consumo y Vivienda","id_sucursal":"12","sucursales_nombre":"B° Universitario","sucursales_localidad":"Bahía Blanca","sucursales_latitud":"-38.70776946221014","sucursales_longitud":"-62.26739162209924","promedio_incremento_pct":"2.82"},{"id_comercio":"13","comercio_razon_social":"Cooperativa Obrera Limitada de Consumo y Vivienda","id_sucursal":"18","sucursales_nombre":"Roca","sucursales_localidad":"Bahía Blanca","sucursales_latitud":"-38.715759146929834","sucursales_longitud":"-62.27162326850896","promedio_incremento_pct":"2.97"},{"id_comercio":"13","comercio_razon_social":"Cooperativa Obrera Limitada de Consumo y Vivienda","id_sucursal":"24","sucursales_nombre":"B° San Roque","sucursales_localidad":"Bahía Blanca","sucursales_latitud":"-38.7022","sucursales_longitud":"-62.29160000000002","promedio_incremento_pct":"3.05"},{"id_comercio":"13","comercio_razon_social":"Cooperativa Obrera Limitada de Consumo y Vivienda","id_sucursal":"32","sucursales_nombre":"Rosendo López","sucursales_localidad":"Bahía Blanca","sucursales_latitud":"-38.73870376143402","sucursales_longitud":"-62.21698734722139","promedio_incremento_pct":"4.83"},{"id_comercio":"13","comercio_razon_social":"Cooperativa Obrera Limitada de Consumo y Vivienda","id_sucursal":"36","sucursales_nombre":"Olavarria I","sucursales_localidad":"Olavarría","sucursales_latitud":"-36.886749319973646","sucursales_longitud":"-60.30387032030376","promedio_incremento_pct":"4.71"},{"id_comercio":"13","comercio_razon_social":"Cooperativa Obrera Limitada de Consumo y Vivienda","id_sucursal":"38","sucursales_nombre":"Necochea I","sucursales_localidad":"Necochea","sucursales_latitud":"-38.56530038410667","sucursales_longitud":"-58.72602722949972","promedio_incremento_pct":"8.57"},{"id_comercio":"13","comercio_razon_social":"Cooperativa Obrera Limitada de Consumo y Vivienda","id_sucursal":"39","sucursales_nombre":"Necochea II","sucursales_localidad":"Necochea","sucursales_latitud":"-38.55631807854196","sucursales_longitud":"-58.74200582838057","promedio_incremento_pct":"7.41"},{"id_comercio":"13","comercio_razon_social":"Cooperativa Obrera Limitada de Consumo y Vivienda","id_sucursal":"40","sucursales_nombre":"Benito Juarez","sucursales_localidad":"Benito Juarez","sucursales_latitud":"-37.67561636653722","sucursales_longitud":"-59.805969035720864","promedio_incremento_pct":"7.55"},{"id_comercio":"13","comercio_razon_social":"Cooperativa Obrera Limitada de Consumo y Vivienda","id_sucursal":"42","sucursales_nombre":"Hiper Shopping","sucursales_localidad":"Bahía Blanca","sucursales_latitud":"-38.6986","sucursales_longitud":"-62.2441","promedio_incremento_pct":"2.28"},{"id_comercio":"13","comercio_razon_social":"Cooperativa Obrera Limitada de Consumo y Vivienda","id_sucursal":"54","sucursales_nombre":"B° Patagonia","sucursales_localidad":"Bahía Blanca","sucursales_latitud":"-38.6987","sucursales_longitud":"-62.2114","promedio_incremento_pct":"3.97"},{"id_comercio":"13","comercio_razon_social":"Cooperativa Obrera Limitada de Consumo y Vivienda","id_sucursal":"55","sucursales_nombre":"Lamadrid","sucursales_localidad":"General La Madrid","sucursales_latitud":"-37.25074912158641","sucursales_longitud":"-61.263395190271694","promedio_incremento_pct":"9.03"},{"id_comercio":"13","comercio_razon_social":"Cooperativa Obrera Limitada de Consumo y Vivienda","id_sucursal":"58","sucursales_nombre":"Cinco Saltos","sucursales_localidad":"Cinco Saltos","sucursales_latitud":"-38.824017331886154","sucursales_longitud":"-68.06949687170714","promedio_incremento_pct":"6.86"},{"id_comercio":"13","comercio_razon_social":"Cooperativa Obrera Limitada de Consumo y Vivienda","id_sucursal":"59","sucursales_nombre":"Olavarria III","sucursales_localidad":"Olavarría","sucursales_latitud":"-36.90082972971168","sucursales_longitud":"-60.33149707323901","promedio_incremento_pct":"5.17"},{"id_comercio":"13","comercio_razon_social":"Cooperativa Obrera Limitada de Consumo y Vivienda","id_sucursal":"60","sucursales_nombre":"Gral. Roca I","sucursales_localidad":"General Roca","sucursales_latitud":"-39.02770092079763","sucursales_longitud":"-67.58329921964105","promedio_incremento_pct":"7.16"},{"id_comercio":"13","comercio_razon_social":"Cooperativa Obrera Limitada de Consumo y Vivienda","id_sucursal":"61","sucursales_nombre":"Gral. Roca II","sucursales_localidad":"General Roca","sucursales_latitud":"-39.02938240761715","sucursales_longitud":"-67.56962531808313","promedio_incremento_pct":"9.01"},{"id_comercio":"13","comercio_razon_social":"Cooperativa Obrera Limitada de Consumo y Vivienda","id_sucursal":"62","sucursales_nombre":"Gral. Roca III","sucursales_localidad":"General Roca","sucursales_latitud":"-39.02739879073728","sucursales_longitud":"-67.55879992249902","promedio_incremento_pct":"9.97"},{"id_comercio":"13","comercio_razon_social":"Cooperativa Obrera Limitada de Consumo y Vivienda","id_sucursal":"63","sucursales_nombre":"Villa Regina","sucursales_localidad":"Villa Regina","sucursales_latitud":"-39.09347861748355","sucursales_longitud":"-67.08476138281554","promedio_incremento_pct":"9.16"},{"id_comercio":"13","comercio_razon_social":"Cooperativa Obrera Limitada de Consumo y Vivienda","id_sucursal":"64","sucursales_nombre":"Villa Regina II","sucursales_localidad":"Villa Regina","sucursales_latitud":"-39.09879094433691","sucursales_longitud":"-67.08613199162215","promedio_incremento_pct":"7.58"},{"id_comercio":"13","comercio_razon_social":"Cooperativa Obrera Limitada de Consumo y Vivienda","id_sucursal":"65","sucursales_nombre":"Cipolletti I","sucursales_localidad":"Cipolletti","sucursales_latitud":"-38.93591736352952","sucursales_longitud":"-67.98749637770385","promedio_incremento_pct":"7.72"},{"id_comercio":"13","comercio_razon_social":"Cooperativa Obrera Limitada de Consumo y Vivienda","id_sucursal":"66","sucursales_nombre":"Choele Choel I","sucursales_localidad":"Choele Choel","sucursales_latitud":"-39.29197676335891","sucursales_longitud":"-65.66069615053863","promedio_incremento_pct":"7.45"},{"id_comercio":"13","comercio_razon_social":"Cooperativa Obrera Limitada de Consumo y Vivienda","id_sucursal":"69","sucursales_nombre":"Centenario 1","sucursales_localidad":"Centenario","sucursales_latitud":"-38.82481520164966","sucursales_longitud":"-68.13929164396541","promedio_incremento_pct":"7.64"},{"id_comercio":"13","comercio_razon_social":"Cooperativa Obrera Limitada de Consumo y Vivienda","id_sucursal":"70","sucursales_nombre":"Centenario 2","sucursales_localidad":"Centenario","sucursales_latitud":"-38.82867754894124","sucursales_longitud":"-68.12996515596751","promedio_incremento_pct":"8.90"},{"id_comercio":"13","comercio_razon_social":"Cooperativa Obrera Limitada de Consumo y Vivienda","id_sucursal":"71","sucursales_nombre":"Centenario 3","sucursales_localidad":"Centenario","sucursales_latitud":"-38.8312350581498","sucursales_longitud":"-68.12051403520854","promedio_incremento_pct":"9.83"},{"id_comercio":"13","comercio_razon_social":"Cooperativa Obrera Limitada de Consumo y Vivienda","id_sucursal":"72","sucursales_nombre":"Quequen","sucursales_localidad":"Quequen","sucursales_latitud":"-38.57077746377913","sucursales_longitud":"-58.69759494031314","promedio_incremento_pct":"9.31"},{"id_comercio":"13","comercio_razon_social":"Cooperativa Obrera Limitada de Consumo y Vivienda","id_sucursal":"73","sucursales_nombre":"Casbas","sucursales_localidad":"Casbas","sucursales_latitud":"-36.75774035049233","sucursales_longitud":"-62.505685073337816","promedio_incremento_pct":"6.63"},{"id_comercio":"13","comercio_razon_social":"Cooperativa Obrera Limitada de Consumo y Vivienda","id_sucursal":"74","sucursales_nombre":"Ing. Huergo","sucursales_localidad":"Ingeniero Huergo","sucursales_latitud":"-39.070567747172106","sucursales_longitud":"-67.23163378405303","promedio_incremento_pct":"9.29"},{"id_comercio":"13","comercio_razon_social":"Cooperativa Obrera Limitada de Consumo y Vivienda","id_sucursal":"77","sucursales_nombre":"Viedma","sucursales_localidad":"Viedma","sucursales_latitud":"-40.8148","sucursales_longitud":"-63.0052","promedio_incremento_pct":"6.16"},{"id_comercio":"13","comercio_razon_social":"Cooperativa Obrera Limitada de Consumo y Vivienda","id_sucursal":"78","sucursales_nombre":"Gral. Villegas","sucursales_localidad":"General Villegas","sucursales_latitud":"-35.02964231976656","sucursales_longitud":"-63.01698911196581","promedio_incremento_pct":"5.42"},{"id_comercio":"13","comercio_razon_social":"Cooperativa Obrera Limitada de Consumo y Vivienda","id_sucursal":"79","sucursales_nombre":"Allen I","sucursales_localidad":"Allen","sucursales_latitud":"-38.97937161628803","sucursales_longitud":"-67.82285857207171","promedio_incremento_pct":"7.49"},{"id_comercio":"13","comercio_razon_social":"Cooperativa Obrera Limitada de Consumo y Vivienda","id_sucursal":"80","sucursales_nombre":"Allen II","sucursales_localidad":"Allen","sucursales_latitud":"-38.98309546319121","sucursales_longitud":"-67.83118271836429","promedio_incremento_pct":"9.82"},{"id_comercio":"13","comercio_razon_social":"Cooperativa Obrera Limitada de Consumo y Vivienda","id_sucursal":"81","sucursales_nombre":"FERNANDES ORO I","sucursales_localidad":"Gral Fernandez Oro","sucursales_latitud":"-38.956135894116365","sucursales_longitud":"-67.92118155965","promedio_incremento_pct":"9.78"},{"id_comercio":"13","comercio_razon_social":"Cooperativa Obrera Limitada de Consumo y Vivienda","id_sucursal":"82","sucursales_nombre":"Fernandez Oro II","sucursales_localidad":"Fernandez Oro","sucursales_latitud":"-38.952648418329176","sucursales_longitud":"-67.92718434342532","promedio_incremento_pct":"9.83"},{"id_comercio":"13","comercio_razon_social":"Cooperativa Obrera Limitada de Consumo y Vivienda","id_sucursal":"83","sucursales_nombre":"Cinco Saltos II","sucursales_localidad":"Cinco Saltos","sucursales_latitud":"-38.82372106855116","sucursales_longitud":"-68.06926095494418","promedio_incremento_pct":"8.68"},{"id_comercio":"13","comercio_razon_social":"Cooperativa Obrera Limitada de Consumo y Vivienda","id_sucursal":"84","sucursales_nombre":"Neuquén I","sucursales_localidad":"Neuquén","sucursales_latitud":"-38.925717604141624","sucursales_longitud":"-68.08393585612066","promedio_incremento_pct":"8.19"},