[{"comercio_razon_social":"COTO CENTRO INTEGRAL DE COMERCIALIZACION S.A.","sucursales_tipo":"Supermercado","sucursales_calle":"Av. Hipolito Yrigoyen","sucursales_nombre":" BANFIELD ","sucursales_latitud":"-34.7494248","sucursales_longitud":"-58.4002232","incremento_pct":"15.43"},{"comercio_razon_social":"COTO CENTRO INTEGRAL DE COMERCIALIZACION S.A.","sucursales_tipo":"Supermercado","sucursales_calle":"Cullen","sucursales_nombre":" CULLEN ","sucursales_latitud":"-34.5728529","sucursales_longitud":"-58.4878818","incremento_pct":"16.33"},{"comercio_razon_social":"COTO CENTRO INTEGRAL DE COMERCIALIZACION S.A.","sucursales_tipo":"Supermercado","sucursales_calle":"Tte. Gral. Juan D. Perón","sucursales_nombre":" PTE. PERON ","sucursales_latitud":"-34.6071216","sucursales_longitud":"-58.3960221","incremento_pct":"16.07"},{"comercio_razon_social":"COTO CENTRO INTEGRAL DE COMERCIALIZACION S.A.","sucursales_tipo":"Supermercado","sucursales_calle":"Teodoro García","sucursales_nombre":" TEODORO GARCIA ","sucursales_latitud":"-34.5698358","sucursales_longitud":"-58.4459054","incremento_pct":"15.74"},{"comercio_razon_social":"COTO CENTRO INTEGRAL DE COMERCIALIZACION S.A.","sucursales_tipo":"Supermercado","sucursales_calle":"Country Highland Park","sucursales_nombre":"155 HIGHLAND PARK ","sucursales_latitud":"-34.419958","sucursales_longitud":"-58.794678","incremento_pct":"12.66"},{"comercio_razon_social":"COTO CENTRO INTEGRAL DE COMERCIALIZACION S.A.","sucursales_tipo":"Supermercado","sucursales_calle":"Calle 9","sucursales_nombre":"25 de Mayo","sucursales_latitud":"-35.4296470","sucursales_longitud":"-60.1706530","incremento_pct":"15.65"},{"comercio_razon_social":"COTO CENTRO INTEGRAL DE COMERCIALIZACION S.A.","sucursales_tipo":"Hipermercado","sucursales_calle":"RUTA NACIONAL 40 KM","sucursales_nombre":"28 DE NOVIEMBRE 2","sucursales_latitud":"-51.575630","sucursales_longitud":"-72.213560","incremento_pct":"11.96"},{"comercio_razon_social":"COTO CENTRO INTEGRAL DE COMERCIALIZACION S.A.","sucursales_tipo":"Supermercado","sucursales_calle":"Av. Mitre","sucursales_nombre":"9 de Julio","sucursales_latitud":"-35.451289482419185","sucursales_longitud":"-60.89747634512605","incremento_pct":"14.14"},{"comercio_razon_social":"COTO CENTRO INTEGRAL DE COMERCIALIZACION S.A.","sucursales_tipo":"Supermercado","sucursales_calle":"ALEM","sucursales_nombre":"A.SERV.N 1 COM.RIVADAVIA","sucursales_latitud":"-45.860430","sucursales_longitud":"-67.498840","incremento_pct":"17.20"},{"comercio_razon_social":"COTO CENTRO INTEGRAL DE COMERCIALIZACION S.A.","sucursales_tipo":"Supermercado","sucursales_calle":"ATAHUALPA YUPANQUI","sucursales_nombre":"A.SERV.N 2 COM.RIVADAVIA","sucursales_latitud":"-45.875190","sucursales_longitud":"-67.519110","incremento_pct":"16.70"},{"comercio_razon_social":"COTO CENTRO INTEGRAL DE COMERCIALIZACION S.A.","sucursales_tipo":"Hipermercado","sucursales_calle":"Agüero","sucursales_nombre":"ABASTO ","sucursales_latitud":"-34.6027526","sucursales_longitud":"-58.4114132","incremento_pct":"8.66"},{"comercio_razon_social":"COTO CENTRO INTEGRAL DE COMERCIALIZACION S.A.","sucursales_tipo":"Autoservicio","sucursales_calle":"ROCA 4550","sucursales_nombre":"ACA AUTODROMO","sucursales_latitud":"-34.68075","sucursales_longitud":"-58.45034","incremento_pct":"15.36"},{"comercio_razon_social":"COTO CENTRO INTEGRAL DE COMERCIALIZACION S.A.","sucursales_tipo":"Autoservicio","sucursales_calle":"AV GAONA 1204","sucursales_nombre":"ACA CABALLITO","sucursales_latitud":"-34.60805","sucursales_longitud":"-58.44684","incremento_pct":"14.03"},{"comercio_razon_social":"COTO CENTRO INTEGRAL DE COMERCIALIZACION S.A.","sucursales_tipo":"Autoservicio","sucursales_calle":"AV RIVADAVIA 3341","sucursales_nombre":"ACA ONCE","sucursales_latitud":"-34.61054","sucursales_longitud":"-58.41368","incremento_pct":"11.75"},{"comercio_razon_social":"COTO CENTRO INTEGRAL DE COMERCIALIZACION S.A.","sucursales_tipo":"Autoservicio","sucursales_calle":"V.SARSFIELD 850  Y TOOL","sucursales_nombre":"ACA VELEZ SARSFIELD","sucursales_latitud":"-34.64512","sucursales_longitud":"-58.38923","incremento_pct":"16.25"},{"comercio_razon_social":"COTO CENTRO INTEGRAL DE COMERCIALIZACION S.A.","sucursales_tipo":"Autoservicio","sucursales_calle":"AV. LIBERTADOR","sucursales_nombre":"ACASSUSO","sucursales_latitud":"-34.47436","sucursales_longitud":"-58.50185","incremento_pct":"16.25"},{"comercio_razon_social":"COTO CENTRO INTEGRAL DE COMERCIALIZACION S.A.","sucursales_tipo":"Supermercado","sucursales_calle":"Albarellos","sucursales_nombre":"ALBARELLOS ","sucursales_latitud":"-34.4802448","sucursales_longitud":"-58.5056248","incremento_pct":"13.64"},{"comercio_razon_social":"COTO CENTRO INTEGRAL DE COMERCIALIZACION S.A.","sucursales_tipo":"Hipermercado","sucursales_calle":"Av.  J.B. Alberdi","sucursales_nombre":"ALBERDI ","sucursales_latitud":"-34.6281676","sucursales_longitud":"-58.453314","incremento_pct":"13.41"},{"comercio_razon_social":"COTO CENTRO INTEGRAL DE COMERCIALIZACION S.A.","sucursales_tipo":"Autoservicio","sucursales_calle":"ALDERETE","sucursales_nombre":"ALDERETE","sucursales_latitud":"-38.950930","sucursales_longitud":"-68.030640","incremento_pct":"15.14"},{"comercio_razon_social":"COTO CENTRO INTEGRAL DE COMERCIALIZACION S.A.","sucursales_tipo":"Supermercado","sucursales_calle":"JUAN B.JUSTO","sucursales_nombre":"ALLEN","sucursales_latitud":"-38.980550","sucursales_longitud":"-67.830110","incremento_pct":"18.06"},{"comercio_razon_social":"COTO CENTRO INTEGRAL DE COMERCIALIZACION S.A.","sucursales_tipo":"Supermercado","sucursales_calle":"CALLE 1","sucursales_nombre":"AMEGHINO","sucursales_latitud":"-34.850330","sucursales_longitud":"-62.466760","incremento_pct":"15.24"},{"comercio_razon_social":"COTO CENTRO INTEGRAL DE COMERCIALIZACION S.A.","sucursales_tipo":"Hipermercado","sucursales_calle":"Amenabar","sucursales_nombre":"AMENABAR ","sucursales_latitud":"-34.5628202","sucursales_longitud":"-58.4588525","incremento_pct":"13.33"},{"comercio_razon_social":"COTO CENTRO INTEGRAL DE COMERCIALIZACION S.A.","sucursales_tipo":"Supermercado","sucursales_calle":"Asamblea","sucursales_nombre":"ASAMBLEA ","sucursales_latitud":"-34.6358296","sucursales_longitud":"-58.4415417","incremento_pct":"14.96"},{"comercio_razon_social":"COTO CENTRO INTEGRAL DE COMERCIALIZACION S.A.","sucursales_tipo":"Supermercado","sucursales_calle":"PELLEGRINI","sucursales_nombre":"AUTOSERV.3 TRELEW","sucursales_latitud":"-43.267990","sucursales_longitud":"-65.298390","incremento_pct":"15.36"},{"comercio_razon_social":"COTO CENTRO INTEGRAL DE COMERCIALIZACION S.A.","sucursales_tipo":"Supermercado","sucursales_calle":"25 DE MAYO","sucursales_nombre":"AUTOSERVICE 2 RIO GRANDE","sucursales_latitud":"-53.791950","sucursales_longitud":"-67.721140","incremento_pct":"18.48"},{"comercio_razon_social":"COTO CENTRO INTEGRAL DE COMERCIALIZACION S.A.","sucursales_tipo":"Autoservicio","sucursales_calle":"SAN MARTIN","sucursales_nombre":"AUTOSERVICIO GRAL ROCA 2","sucursales_latitud":"-39.027470","sucursales_longitud":"-67.565730","incremento_pct":"15.37"},{"comercio_razon_social":"COTO CENTRO INTEGRAL DE COMERCIALIZACION S.A.","sucursales_tipo":"Supermercado","sucursales_calle":"ITALIA","sucursales_nombre":"AUTOSERVICIO PTO.MADRYN","sucursales_latitud":"-42.767230","sucursales_longitud":"-65.042990","incremento_pct":"11.22"},{"comercio_razon_social":"COTO CENTRO INTEGRAL DE COMERCIALIZACION S.A.","sucursales_tipo":"Supermercado","sucursales_calle":"SANTA CRUZ","sucursales_nombre":"AUTOSERVICIO R.GALLEGOS","sucursales_latitud":"-51.641370","sucursales_longitud":"-69.228800","incremento_pct":"13.25"},{"comercio_razon_social":"COTO CENTRO INTEGRAL DE COMERCIALIZACION S.A.","sucursales_tipo":"Supermercado","sucursales_calle":"C.RUBINO DE RIO","sucursales_nombre":"AUTOSERVICIO USHUAIA","sucursales_latitud":"-54.817910","sucursales_longitud":"-68.335060","incremento_pct":"13.98"},{"comercio_razon_social":"COTO CENTRO INTEGRAL DE COMERCIALIZACION S.A.","sucursales_tipo":"Supermercado","sucursales_calle":"Av. Elcano","sucursales_nombre":"AV EL CANO ","sucursales_latitud":"-34.578357","sucursales_longitud":"-58.460232","incremento_pct":"16.87"},{"comercio_razon_social":"COTO CENTRO INTEGRAL DE COMERCIALIZACION S.A.","sucursales_tipo":"Supermercado","sucursales_calle":"Av. La Plata","sucursales_nombre":"AV. LA PLATA ","sucursales_latitud":"-34.64267","sucursales_longitud":"-58.422711","incremento_pct":"18.16"},{"comercio_razon_social":"COTO CENTRO INTEGRAL DE COMERCIALIZACION S.A.","sucursales_tipo":"Supermercado","sucursales_calle":"Av. La Plata","sucursales_nombre":"AV. LA PLATA ","sucursales_latitud":"-34.621309","sucursales_longitud":"-58.428189","incremento_pct":"14.55"},{"comercio_razon_social":"COTO CENTRO INTEGRAL DE COMERCIALIZACION S.A.","sucursales_tipo":"Supermercado","sucursales_calle":"Av. Eva Peron","sucursales_nombre":"AV.DEL TRABAJO ","sucursales_latitud":"-34.6380873","sucursales_longitud":"-58.4525728","incremento_pct":"16.15"},{"comercio_razon_social":"COTO CENTRO INTEGRAL DE COMERCIALIZACION S.A.","sucursales_tipo":"Supermercado","sucursales_calle":"Av. San Martín","sucursales_nombre":"AV.SAN MARTIN","sucursales_latitud":"-34.6048231","sucursales_longitud":"-58.4571361","incremento_pct":"16.25"},{"comercio_razon_social":"COTO CENTRO INTEGRAL DE COMERCIALIZACION S.A.","sucursales_tipo":"Supermercado","sucursales_calle":"Av. Avellaneda","sucursales_nombre":"AVELLANEDA ","sucursales_latitud":"-34.6290437","sucursales_longitud":"-58.481691","incremento_pct":"17.46"},{"comercio_razon_social":"COTO CENTRO INTEGRAL DE COMERCIALIZACION S.A.","sucursales_tipo":"Supermercado","sucursales_calle":"Italia ","sucursales_nombre":"AVELLANEDA ","sucursales_latitud":"-34.6650066","sucursales_longitud":"-58.3623175","incremento_pct":"13.08"},{"comercio_razon_social":"COTO CENTRO INTEGRAL DE COMERCIALIZACION S.A.","sucursales_tipo":"Supermercado","sucursales_calle":"MONSEÑOR CANEVA","sucursales_nombre":"AZUL","sucursales_latitud":"-36.783740","sucursales_longitud":"-59.852910","incremento_pct":"14.91"},{"comercio_razon_social":"COTO CENTRO INTEGRAL DE COMERCIALIZACION S.A.","sucursales_tipo":"Tradicional","sucursales_calle":"Av. Corrientes","sucursales_nombre":"Abasto Shopping","sucursales_latitud":"-34.6026230","sucursales_longitud":"-58.4110080","incremento_pct":"11.35"},{"comercio_razon_social":"COTO CENTRO INTEGRAL DE COMERCIALIZACION S.A.","sucursales_tipo":"Supermercado","sucursales_calle":"Amenedo","sucursales_nombre":"Adrogué.","sucursales_latitud":"-34.7993","sucursales_longitud":"-58.4053","incremento_pct":"18.48"},{"comercio_razon_social":"COTO CENTRO INTEGRAL DE COMERCIALIZACION S.A.","sucursales_tipo":"Autoservicio","sucursales_calle":"Bv. Kelly","sucursales_nombre":"Agapantus.Balcarce","sucursales_latitud":"-37.848297","sucursales_longitud":"-58.258285","incremento_pct":"16.15"},{"comercio_razon_social":"COTO CENTRO INTEGRAL DE COMERCIALIZACION S.A.","sucursales_tipo":"Supermercado","sucursales_calle":"Alberti","sucursales_nombre":"Alberti.","sucursales_latitud":"-38.0072","sucursales_longitud":"-57.5514","incremento_pct":"15.48"},{"comercio_razon_social":"COTO CENTRO INTEGRAL DE COMERCIALIZACION S.A.","sucursales_tipo":"Supermercado","sucursales_calle":"Alem","sucursales_nombre":"Alem","sucursales_latitud":"-38.68393932708354","sucursales_longitud":"-62.29150968720205","incremento_pct":"15.66"},{"comercio_razon_social":"COTO CENTRO INTEGRAL DE COMERCIALIZACION S.A.","sucursales_tipo":"Autoservicio","sucursales_calle":"Roca","sucursales_nombre":"Allen II","sucursales_latitud":"-38.98309546319121","sucursales_longitud":"-67.83118271836429","incremento_pct":"13.24"},{"comercio_razon_social":"COTO CENTRO INTEGRAL DE COMERCIALIZACION S.A.","sucursales_tipo":"Supermercado","sucursales_calle":"Irigoyen","sucursales_nombre":"Allen III","sucursales_latitud":"-38.975638398537015","sucursales_longitud":"-67.83520889352076","incremento_pct":"11.58"},{"comercio_razon_social":"COTO CENTRO INTEGRAL DE COMERCIALIZACION S.A.","sucursales_tipo":"Tradicional","sucursales_calle":"Av. Corrientes","sucursales_nombre":"Almagro","sucursales_latitud":"-34.6033211","sucursales_longitud":"-58.4193429","incremento_pct":"16.25"},{"comercio_razon_social":"COTO CENTRO INTEGRAL DE COMERCIALIZACION S.A.","sucursales_tipo":"Autoservicio","sucursales_calle":"Belgrano","sucursales_nombre":"Alta Gracia","sucursales_latitud":"-31.6576661","sucursales_longitud":"-64.4346239","incremento_pct":"11.22"},{"comercio_razon_social":"COTO CENTRO INTEGRAL DE COMERCIALIZACION S.A.","sucursales_tipo":"Tradicional","sucursales_calle":"Av. Santa Fe","sucursales_nombre":"Alto Palermo Shopping","sucursales_latitud":"-34.5883150","sucursales_longitud":"-58.4106910","incremento_pct":"14.18"},{"comercio_razon_social":"COTO CENTRO INTEGRAL DE COMERCIALIZACION S.A.","sucursales_tipo":"Autoservicio","sucursales_calle":"Cordillera del Viento ESQ","sucursales_nombre":"Andacollo","sucursales_latitud":"-37.178799243985814","sucursales_longitud":"-70.6675814688424","incremento_pct":"15.24"},{"comercio_razon_social":"COTO CENTRO INTEGRAL DE COMERCIALIZACION S.A.","sucursales_tipo":"Supermercado","sucursales_calle":"ARCOS ING ANTONIO","sucursales_nombre":"Arcos.","sucursales_latitud":"-34.5622","sucursales_longitud":"-58.4546","incremento_pct":"14.48"},{"comercio_razon_social":"COTO CENTRO INTEGRAL DE COMERCIALIZACION S.A.","sucursales_tipo":"Mayorista","sucursales_calle":"Av. Regimiento de Patricios 444","sucursales_nombre":"Autoservicio Patricios","sucursales_latitud":"-34.63372","sucursales_longitud":"-58.37007","incremento_pct":"14.30"},{"comercio_razon_social":"COTO CENTRO INTEGRAL DE COMERCIALIZACION S.A.","sucursales_tipo":"Supermercado","sucursales_calle":"Av. Corrientes","sucursales_nombre":"Av. Corrientes","sucursales_latitud":"-34.603902","sucursales_longitud":"-58.383077","incremento_pct":"10.61"},{"comercio_razon_social":"COTO CENTRO INTEGRAL DE COMERCIALIZACION S.A.","sucursales_tipo":"Autoservicio","sucursales_calle":"Av. Córdoba","sucursales_nombre":"Av. Córdoba 1439","sucursales_latitud":"-34.599262","sucursales_longitud":"-58.387552","incremento_pct":"14.08"},{"comercio_razon_social":"COTO CENTRO INTEGRAL DE COMERCIALIZACION S.A.","sucursales_tipo":"Supermercado","sucursales_calle":"Av. Santa Fe","sucursales_nombre":"Av. Santa Fe 1954","sucursales_latitud":"-34.595813","sucursales_longitud":"-58.395425","incremento_pct":"15.40"},{"comercio_razon_social":"COTO CENTRO INTEGRAL DE COMERCIALIZACION S.A.","sucursales_tipo":"Supermercado","sucursales_calle":"Av. Belgrano","sucursales_nombre":"Avellaneda II","sucursales_latitud":"-34.661465","sucursales_longitud":"-58.368212","incremento_pct":"13.08"},{"comercio_razon_social":"COTO CENTRO INTEGRAL DE COMERCIALIZACION S.A.","sucursales_tipo":"Hipermercado","sucursales_calle":"Av. Piazza","sucursales_nombre":"Azul","sucursales_latitud":"-36.78521552908544","sucursales_longitud":"-59.849216222719406","incremento_pct":"16.87"},{"comercio_razon_social":"COTO CENTRO INTEGRAL DE COMERCIALIZACION S.A.","sucursales_tipo":"Supermercado","sucursales_calle":"Av. 25 de Mayo","sucursales_nombre":"Azul II","sucursales_latitud":"-36.788827761866905","sucursales_longitud":"-59.871529162628576","incremento_pct":"13.98"},{"comercio_razon_social":"COTO CENTRO INTEGRAL DE COMERCIALIZACION S.A.","sucursales_tipo":"Supermercado","sucursales_calle":"BAHIA BLANCA","sucursales_nombre":"BAHIA BLANCA","sucursales_latitud":"-38.959340","sucursales_longitud":"-68.050820","incremento_pct":"18.16"},{"comercio_razon_social":"COTO CENTRO INTEGRAL DE COMERCIALIZACION S.A.","sucursales_tipo":"Tradicional","sucursales_calle":"Donado 65","sucursales_nombre":"BAHIA BLANCA II","sucursales_latitud":"-38.7266187","sucursales_longitud":"-62.2756371","incremento_pct":"16.81"},{"comercio_razon_social":"COTO CENTRO INTEGRAL DE COMERCIALIZACION S.A.","sucursales_tipo":"Supermercado","sucursales_calle":"GALLARDO","sucursales_nombre":"BARILOCHE 4","sucursales_latitud":"-41.137980","sucursales_longitud":"-71.298460","incremento_pct":"11.75"},{"comercio_razon_social":"COTO CENTRO INTEGRAL DE COMERCIALIZACION S.A.","sucursales_tipo":"Supermercado","sucursales_calle":"AV. BUSTILLO KM 13","sucursales_nombre":"BARILOCHE 5","sucursales_latitud":"-41.101500","sucursales_longitud":"-71.444590","incremento_pct":"16.07"},{"comercio_razon_social":"COTO CENTRO INTEGRAL DE COMERCIALIZACION S.A.","sucursales_tipo":"Hipermercado","sucursales_calle":"Gaspar M De Jovellanos","sucursales_nombre":"BARRACAS","sucursales_latitud":"-34.6320834","sucursales_longitud":"-58.3760678","incremento_pct":"10.51"},{"comercio_razon_social":"COTO CENTRO INTEGRAL DE COMERCIALIZACION S.A.","sucursales_tipo":"Supermercado","sucursales_calle":"AV. CHILE","sucursales_nombre":"BARRIO 1008","sucursales_latitud":"-45.882880","sucursales_longitud":"-67.538800","incremento_pct":"15.62"},{"comercio_razon_social":"COTO CENTRO INTEGRAL DE COMERCIALIZACION S.A.","sucursales_tipo":"Autoservicio","sucursales_calle":"Av. Francisco Beiró 5804","sucursales_nombre":"BEIRO","sucursales_latitud":"-34.61814","sucursales_longitud":"-58.53020","incremento_pct":"13.09"},{"comercio_razon_social":"COTO CENTRO INTEGRAL DE COMERCIALIZACION S.A.","sucursales_tipo":"Supermercado","sucursales_calle":"BELGRANO","sucursales_nombre":"BELGRANO 1","sucursales_latitud":"-38.950450","sucursales_longitud":"-68.111470","incremento_pct":"12.91"},{"comercio_razon_social":"COTO CENTRO INTEGRAL DE COMERCIALIZACION S.A.","sucursales_tipo":"Supermercado","sucursales_calle":"O Higgins ","sucursales_nombre":"BELLA VISTA ","sucursales_latitud":"-34.5715475","sucursales_longitud":"-58.6833252","incremento_pct":"15.12"},{"comercio_razon_social":"COTO CENTRO INTEGRAL DE COMERCIALIZACION S.A.","sucursales_tipo":"Supermercado","sucursales_calle":"Av. Dardo Rocha","sucursales_nombre":"BERNAL ","sucursales_latitud":"-34.719142","sucursales_longitud":"-58.2913273","incremento_pct":"15.16"},{"comercio_razon_social":"COTO CENTRO INTEGRAL DE COMERCIALIZACION S.A.","sucursales_tipo":"Hipermercado","sucursales_calle":"Av. Boedo","sucursales_nombre":"BOEDO ","sucursales_latitud":"-34.6221132","sucursales_longitud":"-58.4164336","incremento_pct":"13.25"},{"comercio_razon_social":"COTO CENTRO INTEGRAL DE COMERCIALIZACION S.A.","sucursales_tipo":"Hipermercado","sucursales_calle":"Santa Fe","sucursales_nombre":"BOTANICO ","sucursales_latitud":"-34.5847845","sucursales_longitud":"-58.4165247","incremento_pct":"9.85"},{"comercio_razon_social":"COTO CENTRO INTEGRAL DE COMERCIALIZACION S.A.","sucursales_tipo":"Supermercado","sucursales_calle":"RIVADAVIA","sucursales_nombre":"BRAGADO","sucursales_latitud":"-35.119830","sucursales_longitud":"-60.480450","incremento_pct":"16.01"},{"comercio_razon_social":"COTO CENTRO INTEGRAL DE COMERCIALIZACION S.A.","sucursales_tipo":"Supermercado","sucursales_calle":"Fitz Roy","sucursales_nombre":"Bahía Blanca","sucursales_latitud":"-38.7226280","sucursales_longitud":"-62.2671916","incremento_pct":"15.48"},{"comercio_razon_social":"COTO CENTRO INTEGRAL DE COMERCIALIZACION S.A.","sucursales_tipo":"Supermercado","sucursales_calle":"Av Kelly","sucursales_nombre":"Balcarce","sucursales_latitud":"-37.8494919","sucursales_longitud":"-58.261301","incremento_pct":"17.59"},{"comercio_razon_social":"COTO CENTRO INTEGRAL DE COMERCIALIZACION S.A.","sucursales_tipo":"Hipermercado","sucursales_calle":"Las Heras","sucursales_nombre":"Banfield","sucursales_latitud":"-34.748145","sucursales_longitud":"-58.411227","incremento_pct":"16.81"},{"comercio_razon_social":"COTO CENTRO INTEGRAL DE COMERCIALIZACION S.A.","sucursales_tipo":"Tradicional","sucursales_calle":"Clemente Onelli","sucursales_nombre":"Bariloche","sucursales_latitud":"-41.1370934","sucursales_longitud":"-71.2974950","incremento_pct":"15.40"},{"comercio_razon_social":"COTO CENTRO INTEGRAL DE COMERCIALIZACION S.A.","sucursales_tipo":"Hipermercado","sucursales_calle":"Moreno","sucursales_nombre":"Bariloche","sucursales_latitud":"-41.136201","sucursales_longitud":"-71.296792","incremento_pct":"13.09"},{"comercio_razon_social":"COTO CENTRO INTEGRAL DE COMERCIALIZACION S.A.","sucursales_tipo":"Tradicional","sucursales_calle":"Av. Cabildo","sucursales_nombre":"Belgrano 2","sucursales_latitud":"-34.5632570","sucursales_longitud":"-58.4556360","incremento_pct":"13.41"},{"comercio_razon_social":"COTO CENTRO INTEGRAL DE COMERCIALIZACION S.A.","sucursales_tipo":"Supermercado","sucursales_calle":"AVENIDA MORON SENADOR","sucursales_nombre":"Bella Vista.","sucursales_latitud":"-34.5608","sucursales_longitud":"-58.6785","incremento_pct":"15.88"},{"comercio_razon_social":"COTO CENTRO INTEGRAL DE COMERCIALIZACION S.A.","sucursales_tipo":"Supermercado","sucursales_calle":"Av. Mitre","sucursales_nombre":"Benito Juarez","sucursales_latitud":"-37.67561636653722","sucursales_longitud":"-59.805969035720864","incremento_pct":"16.15"},{"comercio_razon_social":"COTO CENTRO INTEGRAL DE COMERCIALIZACION S.A.","sucursales_tipo":"Tradicional","sucursales_calle":"Pres. Juan Domingo Peron","sucursales_nombre":"Berazategui","sucursales_latitud":"-34.7621445","sucursales_longitud":"-58.2098571","incremento_pct":"16.43"},{"comercio_razon_social":"COTO CENTRO INTEGRAL DE COMERCIALIZACION S.A.","sucursales_tipo":"Supermercado","sucursales_calle":"Peron                                   ","sucursales_nombre":"Bicentenario                                                ","sucursales_latitud":"-40.798007","sucursales_longitud":"-62.969036","incremento_pct":"16.25"},{"comercio_razon_social":"COTO CENTRO INTEGRAL DE COMERCIALIZACION S.A.","sucursales_tipo":"Supermercado","sucursales_calle":"General Paz","sucursales_nombre":"Bolivar","sucursales_latitud":"-36.23153688864939","sucursales_longitud":"-61.11475968369632","incremento_pct":"8.66"},{"comercio_razon_social":"COTO CENTRO INTEGRAL DE COMERCIALIZACION S.A.","sucursales_tipo":"Supermercado","sucursales_calle":"BULNES","sucursales_nombre":"Bulnes.","sucursales_latitud":"-34.5992","sucursales_longitud":"-58.4199","incremento_pct":"17.59"},{"comercio_razon_social":"COTO CENTRO INTEGRAL DE COMERCIALIZACION S.A.","sucursales_tipo":"Supermercado","sucursales_calle":"9 DE JULIO","sucursales_nombre":"B° Almafuerte","sucursales_latitud":"-38.72414512676858","sucursales_longitud":"-62.276518136698655","incremento_pct":"18.16"},{"comercio_razon_social":"COTO CENTRO INTEGRAL DE COMERCIALIZACION S.A.","sucursales_tipo":"Supermercado","sucursales_calle":"Av. Colón","sucursales_nombre":"B° Colón","sucursales_latitud":"-38.731251517754664","sucursales_longitud":"-62.282264373016346","incremento_pct":"16.70"},{"comercio_razon_social":"COTO CENTRO INTEGRAL DE COMERCIALIZACION S.A.","sucursales_tipo":"Supermercado","sucursales_calle":"Charlone","sucursales_nombre":"B° Pacífico","sucursales_latitud":"-38.7126","sucursales_longitud":"-62.281499999999994","incremento_pct":"18.79"},{"comercio_razon_social":"COTO CENTRO INTEGRAL DE COMERCIALIZACION S.A.","sucursales_tipo":"Supermercado","sucursales_calle":"Almafuerte","sucursales_nombre":"B° Richieri","sucursales_latitud":"-38.7055","sucursales_longitud":"-62.3028","incremento_pct":"15.54"},{"comercio_razon_social":"COTO CENTRO INTEGRAL DE COMERCIALIZACION S.A.","sucursales_tipo":"Supermercado","sucursales_calle":"Vieytes","sucursales_nombre":"B° San Roque","sucursales_latitud":"-38.7022","sucursales_longitud":"-62.29160000000002","incremento_pct":"17.20"},{"comercio_razon_social":"COTO CENTRO INTEGRAL DE COMERCIALIZACION S.A.","sucursales_tipo":"Supermercado","sucursales_calle":"Láinez","sucursales_nombre":"B° Villa Libre","sucursales_latitud":"-38.72810880771607","sucursales_longitud":"-62.22958583068851","incremento_pct":"15.36"},{"comercio_razon_social":"COTO CENTRO INTEGRAL DE COMERCIALIZACION S.A.","sucursales_tipo":"Supermercado","sucursales_calle":"SAN LORENZO","sucursales_nombre":"C. DE PATAGONES","sucursales_latitud":"-40.799190","sucursales_longitud":"-62.978050","incremento_pct":"12.09"},{"comercio_razon_social":"COTO CENTRO INTEGRAL DE COMERCIALIZACION S.A.","sucursales_tipo":"Tradicional","sucursales_calle":"Conquista Del Desierto","sucursales_nombre":"C.D.EZEIZA","sucursales_latitud":"-34.8537658","sucursales_longitud":"-58.5235769","incremento_pct":"16.38"},{"comercio_razon_social":"COTO CENTRO INTEGRAL DE COMERCIALIZACION S.A.","sucursales_tipo":"Autoservicio","sucursales_calle":"AV CABILDO 4108","sucursales_nombre":"CABILDO","sucursales_latitud":"-34.54595","sucursales_longitud":"-58.47089","incremento_pct":"17.73"},{"comercio_razon_social":"COTO CENTRO INTEGRAL DE COMERCIALIZACION S.A.","sucursales_tipo":"Hipermercado","sucursales_calle":"Av. Cabildo","sucursales_nombre":"CABILDO ","sucursales_latitud":"-34.5713409","sucursales_longitud":"-58.4420995","incremento_pct":"11.22"},{"comercio_razon_social":"COTO CENTRO INTEGRAL DE COMERCIALIZACION S.A.","sucursales_tipo":"Supermercado","sucursales_calle":"Av. Cabildo","sucursales_nombre":"CABILDO ","sucursales_latitud":"-34.5458941","sucursales_longitud":"-58.4705622","incremento_pct":"13.00"},{"comercio_razon_social":"COTO CENTRO INTEGRAL DE COMERCIALIZACION S.A.","sucursales_tipo":"Supermercado","sucursales_calle":"Juan M. Estrada","sucursales_nombre":"CAMPANA ","sucursales_latitud":"-34.1659506","sucursales_longitud":"-58.9611328","incremento_pct":"15.24"},{"comercio_razon_social":"COTO CENTRO INTEGRAL DE COMERCIALIZACION S.A.","sucursales_tipo":"Supermercado","sucursales_calle":"VICENTE LOPEZ","sucursales_nombre":"CARLOS CASARES","sucursales_latitud":"-35.624580","sucursales_longitud":"-61.366430","incremento_pct":"14.28"},{"comercio_razon_social":"COTO CENTRO INTEGRAL DE COMERCIALIZACION S.A.","sucursales_tipo":"Hipermercado","sucursales_calle":"Santa Rosa","sucursales_nombre":"CASTELAR ","sucursales_latitud":"-34.640349","sucursales_longitud":"-58.655782","incremento_pct":"14.08"},{"comercio_razon_social":"COTO CENTRO INTEGRAL DE COMERCIALIZACION S.A.","sucursales_tipo":"Hipermercado","sucursales_calle":"Castro Barros","sucursales_nombre":"CASTRO BARROS ","sucursales_latitud":"-34.6118491","sucursales_longitud":"-58.4209021","incremento_pct":"11.75"},{"comercio_razon_social":"COTO CENTRO INTEGRAL DE COMERCIALIZACION S.A.","sucursales_tipo":"Supermercado","sucursales_calle":"ING. EDUARDO GARRO","sucursales_nombre":"CATRIEL","sucursales_latitud":"-37.884350","sucursales_longitud":"-67.798860","incremento_pct":"12.67"},{"comercio_razon_social":"COTO CENTRO INTEGRAL DE COMERCIALIZACION S.A.","sucursales_tipo":"Supermercado","sucursales_calle":"Cerviño","sucursales_nombre":"CERVINO ","sucursales_latitud":"-34.580229","sucursales_longitud":"-58.408608","incremento_pct":"17.75"},{"comercio_razon_social":"COTO CENTRO INTEGRAL DE COMERCIALIZACION S.A.","sucursales_tipo":"Supermercado","sucursales_calle":"SARMIENTO","sucursales_nombre":"CHACABUCO","sucursales_latitud":"-34.643660","sucursales_longitud":"-60.470900","incremento_pct":"17.46"},{"comercio_razon_social":"COTO CENTRO INTEGRAL DE COMERCIALIZACION S.A.","sucursales_tipo":"Hipermercado","sucursales_calle":"Charcas","sucursales_nombre":"CHARCAS ","sucursales_latitud":"-34.5924706","sucursales_longitud":"-58.4111036","incremento_pct":"13.22"},{"comercio_razon_social":"COTO CENTRO INTEGRAL DE COMERCIALIZACION S.A.","sucursales_tipo":"Supermercado","sucursales_calle":"AV. FEDERICO SOAREZ","sucursales_nombre":"CHIVILCOY","sucursales_latitud":"-34.895400","sucursales_longitud":"-60.017500","incremento_pct":"16.92"},{"comercio_razon_social":"COTO CENTRO INTEGRAL DE COMERCIALIZACION S.A.","sucursales_tipo":"Supermercado","sucursales_calle":"MARIANO MORENO","sucursales_nombre":"CIPOLLETTI","sucursales_latitud":"-38.933690","sucursales_longitud":"-68.001030","incremento_pct":"17.73"},{"comercio_razon_social":"COTO CENTRO INTEGRAL DE COMERCIALIZACION S.A.","sucursales_tipo":"Supermercado","sucursales_calle":"ROCA","sucursales_nombre":"CIPOLLETTI 2","sucursales_latitud":"-38.939820","sucursales_longitud":"-67.995300","incremento_pct":"14.30"},{"comercio_razon_social":"COTO CENTRO INTEGRAL DE COMERCIALIZACION S.A.","sucursales_tipo":"Supermercado","sucursales_calle":"ESMERALDA","sucursales_nombre":"CIPOLLETTI 3","sucursales_latitud":"-38.926630","sucursales_longitud":"-67.990510","incremento_pct":"16.47"},{"comercio_razon_social":"COTO CENTRO INTEGRAL DE COMERCIALIZACION S.A.","sucursales_tipo":"Hipermercado","sucursales_calle":"Comesaña","sucursales_nombre":"CIUDADELA ","sucursales_latitud":"-34.6287238","sucursales_longitud":"-58.5488933","incremento_pct":"11.24"},{"comercio_razon_social":"COTO CENTRO INTEGRAL DE COMERCIALIZACION S.A.","sucursales_tipo":"Supermercado","sucursales_calle":"Lima","sucursales_nombre":"CONSTITUCION ","sucursales_latitud":"-34.626433","sucursales_longitud":"-58.382215","incremento_pct":"17.59"},{"comercio_razon_social":"COTO CENTRO INTEGRAL DE COMERCIALIZACION S.A.","sucursales_tipo":"Hipermercado","sucursales_calle":"Av. Donato Alvarez","sucursales_nombre":"Caballito","sucursales_latitud":"-34.611087","sucursales_longitud":"-58.460584","incremento_pct":"9.54"},{"comercio_razon_social":"COTO CENTRO INTEGRAL DE COMERCIALIZACION S.A.","sucursales_tipo":"Supermercado","sucursales_calle":"Vieytes y Azcuénaga","sucursales_nombre":"Cabildo","sucursales_latitud":"-38.484317162798675","sucursales_longitud":"-61.892693142127996","incremento_pct":"17.73"},{"comercio_razon_social":"COTO CENTRO INTEGRAL DE COMERCIALIZACION S.A.","sucursales_tipo":"Hipermercado","sucursales_calle":"Humberto Beghin","sucursales_nombre":"Caleta Olivia","sucursales_latitud":"-46.444906","sucursales_longitud":"-67.533789","incremento_pct":"14.22"},{"comercio_razon_social":"COTO CENTRO INTEGRAL DE COMERCIALIZACION S.A.","sucursales_tipo":"Tradicional","sucursales_calle":"Av. Ing Agustin Rocca","sucursales_nombre":"Campana","sucursales_latitud":"-34.1612890","sucursales_longitud":"-58.9591250","incremento_pct":"16.07"},{"comercio_razon_social":"COTO CENTRO INTEGRAL DE COMERCIALIZACION S.A.","sucursales_tipo":"Supermercado","sucursales_calle":"Av. Mitre","sucursales_nombre":"Campana Centro","sucursales_latitud":"-34.162738","sucursales_longitud":"-58.965513","incremento_pct":"8.33"},{"comercio_razon_social":"COTO CENTRO INTEGRAL DE COMERCIALIZACION S.A.","sucursales_tipo":"Autoservicio","sucursales_calle":"9 de Julio","sucursales_nombre":"Carlos Casares","sucursales_latitud":"-35.6260526","sucursales_longitud":"-61.3658627","incremento_pct":"16.43"},{"comercio_razon_social":"COTO CENTRO INTEGRAL DE COMERCIALIZACION S.A.","sucursales_tipo":"Tradicional","sucursales_calle":"Av. San Martin","sucursales_nombre":"Carlos Paz","sucursales_latitud":"-31.4200500","sucursales_longitud":"-64.4978230","incremento_pct":"15.74"},{"comercio_razon_social":"COTO CENTRO INTEGRAL DE COMERCIALIZACION S.A.","sucursales_tipo":"Supermercado","sucursales_calle":"Avenida Zeballos Dr. Estanislao","sucursales_nombre":"Castelar Sur.","sucursales_latitud":"-34.6561","sucursales_longitud":"-58.6519","incremento_pct":"12.66"},{"comercio_razon_social":"COTO CENTRO INTEGRAL DE COMERCIALIZACION S.A.","sucursales_tipo":"Supermercado","sucursales_calle":"Hipólito Yrigoyen","sucursales_nombre":"Catamarca","sucursales_latitud":"-28.477093","sucursales_longitud":"-65.778283","incremento_pct":"14.71"},{"comercio_razon_social":"COTO CENTRO INTEGRAL DE COMERCIALIZACION S.A.","sucursales_tipo":"Supermercado","sucursales_calle":"Salta","sucursales_nombre":"Catamarca","sucursales_latitud":"-28.4684909","sucursales_longitud":"-65.7766606","incremento_pct":"12.92"},{"comercio_razon_social":"COTO CENTRO INTEGRAL DE COMERCIALIZACION S.A.","sucursales_tipo":"Supermercado","sucursales_calle":"Av. San Martín","sucursales_nombre":"Catriel","sucursales_latitud":"-37.88332175222674","sucursales_longitud":"-67.79881954193115","incremento_pct":"11.94"},{"comercio_razon_social":"COTO CENTRO INTEGRAL DE COMERCIALIZACION S.A.","sucursales_tipo":"Supermercado","sucursales_calle":"San Martin","sucursales_nombre":"Catriel","sucursales_latitud":"-37.8826513","sucursales_longitud":"-67.8007128","incremento_pct":"14.18"},{"comercio_razon_social":"COTO CENTRO INTEGRAL DE COMERCIALIZACION S.A.","sucursales_tipo":"Supermercado","sucursales_calle":"Honduras","sucursales_nombre":"Centenario 1","sucursales_latitud":"-38.82481520164966","sucursales_longitud":"-68.13929164396541","incremento_pct":"12.09"},{"comercio_razon_social":"COTO CENTRO INTEGRAL DE COMERCIALIZACION S.A.","sucursales_tipo":"Supermercado","sucursales_calle":"Ingeniero Ballester","sucursales_nombre":"Centenario 2","sucursales_latitud":"-38.82867754894124","sucursales_longitud":"-68.12996515596751","incremento_pct":"14.84"},{"comercio_razon_social":"COTO CENTRO INTEGRAL DE COMERCIALIZACION S.A.","sucursales_tipo":"Supermercado","sucursales_calle":"Canadá","sucursales_nombre":"Centenario 6","sucursales_latitud":"-38.829058721432936","sucursales_longitud":"-68.13936831736544","incremento_pct":"14.73"},{"comercio_razon_social":"COTO CENTRO INTEGRAL DE COMERCIALIZACION S.A.","sucursales_tipo":"Supermercado","sucursales_calle":"Ballester","sucursales_nombre":"Centenario 7","sucursales_latitud":"-38.827336073551486","sucursales_longitud":"-68.12438079712592","incremento_pct":"11.26"},{"comercio_razon_social":"COTO CENTRO INTEGRAL DE COMERCIALIZACION S.A.","sucursales_tipo":"Supermercado","sucursales_calle":"Presidente Juan Domingo Perón","sucursales_nombre":"Chaco","sucursales_latitud":"-27.4514458","sucursales_longitud":"-58.9894067","incremento_pct":"13.24"},{"comercio_razon_social":"COTO CENTRO INTEGRAL DE COMERCIALIZACION S.A.","sucursales_tipo":"Supermercado","sucursales_calle":"Lacroze","sucursales_nombre":"Chilavert","sucursales_latitud":"-34.541198","sucursales_longitud":"-58.563095","incremento_pct":"9.85"},{"comercio_razon_social":"COTO CENTRO INTEGRAL DE COMERCIALIZACION S.A.","sucursales_tipo":"Supermercado","sucursales_calle":"Sarmiento","sucursales_nombre":"Chimpay","sucursales_latitud":"-39.16459357228958","sucursales_longitud":"-66.14577341097174","incremento_pct":"12.66"},{"comercio_razon_social":"COTO CENTRO INTEGRAL DE COMERCIALIZACION S.A.","sucursales_tipo":"Supermercado","sucursales_calle":"Pellegrini","sucursales_nombre":"Chivilcoy","sucursales_latitud":"-34.8949760","sucursales_longitud":"-60.0186460","incremento_pct":"17.73"},{"comercio_razon_social":"COTO CENTRO INTEGRAL DE COMERCIALIZACION S.A.","sucursales_tipo":"Supermercado","sucursales_calle":"Avallaneda","sucursales_nombre":"Choele Choel I","sucursales_latitud":"-39.29197676335891","sucursales_longitud":"-65.66069615053863","incremento_pct":"11.46"},{"comercio_razon_social":"COTO CENTRO INTEGRAL DE COMERCIALIZACION S.A.","sucursales_tipo":"Supermercado","sucursales_calle":"Avellaneda","sucursales_nombre":"Choele Choel II","sucursales_latitud":"-39.29264933198452","sucursales_longitud":"-65.65980029272765","incremento_pct":"13.08"},{"comercio_razon_social":"COTO CENTRO INTEGRAL DE COMERCIALIZACION S.A.","sucursales_tipo":"Autoservicio","sucursales_calle":"Sarmiento","sucursales_nombre":"Chos Malal I","sucursales_latitud":"-37.37714668362251","sucursales_longitud":"-70.27291075070644","incremento_pct":"7.86"},{"comercio_razon_social":"COTO CENTRO INTEGRAL DE COMERCIALIZACION S.A.","sucursales_tipo":"Supermercado","sucursales_calle":"Av. Roca","sucursales_nombre":"Cinco Saltos","sucursales_latitud":"-38.824017331886154","sucursales_longitud":"-68.06949687170714","incremento_pct":"16.01"},{"comercio_razon_social":"COTO CENTRO INTEGRAL DE COMERCIALIZACION S.A.","sucursales_tipo":"Autoservicio","sucursales_calle":"San Martin","sucursales_nombre":"Cinco Saltos","sucursales_latitud":"-38.8260671","sucursales_longitud":"-68.0705055","incremento_pct":"11.46"},{"comercio_razon_social":"COTO CENTRO INTEGRAL DE COMERCIALIZACION S.A.","sucursales_tipo":"Supermercado","sucursales_calle":"Av. Cipolletti","sucursales_nombre":"Cinco Saltos II","sucursales_latitud":"-38.82372106855116","sucursales_longitud":"-68.06926095494418","incremento_pct":"16.00"},{"comercio_razon_social":"COTO CENTRO INTEGRAL DE COMERCIALIZACION S.A.","sucursales_tipo":"Autoservicio","sucursales_calle":"Rivadavia","sucursales_nombre":"Cinco Saltos III","sucursales_latitud":"-38.828791217891784","sucursales_longitud":"-68.0672441131901","incremento_pct":"15.40"},{"comercio_razon_social":"COTO CENTRO INTEGRAL DE COMERCIALIZACION S.A.","sucursales_tipo":"Autoservicio","sucursales_calle":"San Martin","sucursales_nombre":"Cipolletti","sucursales_latitud":"-38.9398497","sucursales_longitud":"-67.9997146","incremento_pct":"9.06"},{"comercio_razon_social":"COTO CENTRO INTEGRAL DE COMERCIALIZACION S.A.","sucursales_tipo":"Supermercado","sucursales_calle":"Brentana","sucursales_nombre":"Cipolletti I","sucursales_latitud":"-38.93591736352952","sucursales_longitud":"-67.98749637770385","incremento_pct":"9.06"},{"comercio_razon_social":"COTO CENTRO INTEGRAL DE COMERCIALIZACION S.A.","sucursales_tipo":"Autoservicio","sucursales_calle":"Av. Mengelle","sucursales_nombre":"Cipolletti II","sucursales_latitud":"-38.929159387799636","sucursales_longitud":"-67.99884250762261","incremento_pct":"16.33"},{"comercio_razon_social":"COTO CENTRO INTEGRAL DE COMERCIALIZACION S.A.","sucursales_tipo":"Supermercado","sucursales_calle":"Camino Gral Manuel Belgrano","sucursales_nombre":"City Bell.","sucursales_latitud":"-34.8819","sucursales_longitud":"-58.0544","incremento_pct":"14.14"},{"comercio_razon_social":"COTO CENTRO INTEGRAL DE COMERCIALIZACION S.A.","sucursales_tipo":"Supermercado","sucursales_calle":"Av. Casey","sucursales_nombre":"Cnel. Suarez","sucursales_latitud":"-37.4607288597626","sucursales_longitud":"-61.93615024871826","incremento_pct":"17.75"},{"comercio_razon_social":"COTO CENTRO INTEGRAL DE COMERCIALIZACION S.A.","sucursales_tipo":"Autoservicio","sucursales_calle":"Primera Junta","sucursales_nombre":"Colón","sucursales_latitud":"-32.2251728","sucursales_longitud":"-58.1469513","incremento_pct":"13.98"},{"comercio_razon_social":"COTO CENTRO INTEGRAL DE COMERCIALIZACION S.A.","sucursales_tipo":"Tradicional","sucursales_calle":"Calle San Martin","sucursales_nombre":"Comodoro Rivadavia","sucursales_latitud":"-45.8610687","sucursales_longitud":"-67.4791336","incremento_pct":"15.66"},{"comercio_razon_social":"COTO CENTRO INTEGRAL DE COMERCIALIZACION S.A.","sucursales_tipo":"Supermercado","sucursales_calle":"25 de Mayo","sucursales_nombre":"Concepcion Del Uruguay","sucursales_latitud":"-32.4834304","sucursales_longitud":"-58.2343787","incremento_pct":"13.33"},{"comercio_razon_social":"COTO CENTRO INTEGRAL DE COMERCIALIZACION S.A.","sucursales_tipo":"Tradicional","sucursales_calle":"Entre Rios","sucursales_nombre":"Concordia","sucursales_latitud":"-31.3949130","sucursales_longitud":"-58.0171920","incremento_pct":"16.57"},{"comercio_razon_social":"COTO CENTRO INTEGRAL DE COMERCIALIZACION S.A.","sucursales_tipo":"Supermercado","sucursales_calle":"Urquiza","sucursales_nombre":"Concordia","sucursales_latitud":"-31.3941351","sucursales_longitud":"-58.0190949","incremento_pct":"15.54"},{"comercio_razon_social":"COTO CENTRO INTEGRAL DE COMERCIALIZACION S.A.","sucursales_tipo":"Supermercado","sucursales_calle":"Avenida Constitucion","sucursales_nombre":"Constitución.","sucursales_latitud":"-37.9600","sucursales_longitud":"-57.5668","incremento_pct":"16.01"},{"comercio_razon_social":"COTO CENTRO INTEGRAL DE COMERCIALIZACION S.A.","sucursales_tipo":"Supermercado","sucursales_calle":"Rivadavia","sucursales_nombre":"Cordoba","sucursales_latitud":"-38.0002989","sucursales_longitud":"-57.5500575","incremento_pct":"15.65"},{"comercio_razon_social":"COTO CENTRO INTEGRAL DE COMERCIALIZACION S.A.","sucursales_tipo":"Tradicional","sucursales_calle":"Gral. Paz","sucursales_nombre":"Cordoba Nueva","sucursales_latitud":"-31.4116765","sucursales_longitud":"-64.1854750","incremento_pct":"14.03"},{"comercio_razon_social":"COTO CENTRO INTEGRAL DE COMERCIALIZACION S.A.","sucursales_tipo":"Autoservicio","sucursales_calle":"Belgrano","sucursales_nombre":"Coronel Suarez","sucursales_latitud":"-37.4593647","sucursales_longitud":"-61.9363907","incremento_pct":"15.36"},{"comercio_razon_social":"COTO CENTRO INTEGRAL DE COMERCIALIZACION S.A.","sucursales_tipo":"Hipermercado","sucursales_calle":"Av. Ferré","sucursales_nombre":"Corrientes","sucursales_latitud":"-27.477092","sucursales_longitud":"-58.815872","incremento_pct":"15.62"},{"comercio_razon_social":"COTO CENTRO INTEGRAL DE COMERCIALIZACION S.A.","sucursales_tipo":"Tienda Fisica","sucursales_calle":"JUNIN","sucursales_nombre":"Corrientes 1 - Junin","sucursales_latitud":"-27.467489","sucursales_longitud":"-58.836112","incremento_pct":"16.25"},{"comercio_razon_social":"COTO CENTRO INTEGRAL DE COMERCIALIZACION S.A.","sucursales_tipo":"Tradicional","sucursales_calle":"Junin","sucursales_nombre":"Corrientes 2","sucursales_latitud":"-27.4675520","sucursales_longitud":"-58.8371154","incremento_pct":"15.12"},{"comercio_razon_social":"COTO CENTRO INTEGRAL DE COMERCIALIZACION S.A.","sucursales_tipo":"Hipermercado","sucursales_calle":"Junín","sucursales_nombre":"Corrientes Junin","sucursales_latitud":"-27.467798","sucursales_longitud":"-58.834021","incremento_pct":"15.66"},{"comercio_razon_social":"COTO CENTRO INTEGRAL DE COMERCIALIZACION S.A.","sucursales_tipo":"Tienda Fisica","sucursales_calle":"BERON DE ASTRADA","sucursales_nombre":"Curuzú Cuatiá","sucursales_latitud":"-29.790577","sucursales_longitud":"-58.054853","incremento_pct":"8.66"},{"comercio_razon_social":"COTO CENTRO INTEGRAL DE COMERCIALIZACION S.A.","sucursales_tipo":"Hipermercado","sucursales_calle":"Av. O'Higgins","sucursales_nombre":"Córdoba Jardín","sucursales_latitud":"-31.455534","sucursales_longitud":"-64.166095","incremento_pct":"17.20"},{"comercio_razon_social":"COTO CENTRO INTEGRAL DE COMERCIALIZACION S.A.","sucursales_tipo":"Supermercado","sucursales_calle":"Goyechea","sucursales_nombre":"Córdoba Shopping.","sucursales_latitud":"-31.3802","sucursales_longitud":"-64.2147","incremento_pct":"13.41"},{"comercio_razon_social":"COTO CENTRO INTEGRAL DE COMERCIALIZACION S.A.","sucursales_tipo":"Hipermercado","sucursales_calle":"Av. Diaz Velez","sucursales_nombre":"DIAZ VELEZ ","sucursales_latitud":"-34.6087141","sucursales_longitud":"-58.4309495","incremento_pct":"14.11"},{"comercio_razon_social":"COTO CENTRO INTEGRAL DE COMERCIALIZACION S.A.","sucursales_tipo":"Supermercado","sucursales_calle":"Av. Directorio","sucursales_nombre":"DIRECTORIO ","sucursales_latitud":"-34.634479","sucursales_longitud":"-58.4640708","incremento_pct":"14.45"},{"comercio_razon_social":"COTO CENTRO INTEGRAL DE COMERCIALIZACION S.A.","sucursales_tipo":"Autoservicio","sucursales_calle":"CORDOBA Y DORREGO","sucursales_nombre":"DORREGO","sucursales_latitud":"-34.58487","sucursales_longitud":"-58.44470","incremento_pct":"14.73"},{"comercio_razon_social":"COTO CENTRO INTEGRAL DE COMERCIALIZACION S.A.","sucursales_tipo":"Autoservicio","sucursales_calle":"Pellegrini","sucursales_nombre":"Daireaux","sucursales_latitud":"-36.6000153","sucursales_longitud":"-61.7502183","incremento_pct":"14.46"},{"comercio_razon_social":"COTO CENTRO INTEGRAL DE COMERCIALIZACION S.A.","sucursales_tipo":"Supermercado","sucursales_calle":"Av. San Martín","sucursales_nombre":"Dorrego","sucursales_latitud":"-38.71356528769891","sucursales_longitud":"-61.29378994979851","incremento_pct":"16.43"},{"comercio_razon_social":"COTO CENTRO INTEGRAL DE COMERCIALIZACION S.A.","sucursales_tipo":"Supermercado","sucursales_calle":"SAN MARTIN","sucursales_nombre":"EL BOLSON","sucursales_latitud":"-41.962760","sucursales_longitud":"-71.535240","incremento_pct":"17.04"},{"comercio_razon_social":"COTO CENTRO INTEGRAL DE COMERCIALIZACION S.A.","sucursales_tipo":"Supermercado","sucursales_calle":"GUEMES","sucursales_nombre":"EL BOLSON 2","sucursales_latitud":"-41.971000","sucursales_longitud":"-71.531050","incremento_pct":"11.31"},{"comercio_razon_social":"COTO CENTRO INTEGRAL DE COMERCIALIZACION S.A.","sucursales_tipo":"Supermercado","sucursales_calle":"AV. DEL LIBERTADOR","sucursales_nombre":"EL CALAFATE","sucursales_latitud":"-50.337780","sucursales_longitud":"-72.261590","incremento_pct":"7.86"},{"comercio_razon_social":"COTO CENTRO INTEGRAL DE COMERCIALIZACION S.A.","sucursales_tipo":"Supermercado","sucursales_calle":"Av. Elcano","sucursales_nombre":"ELCANO ","sucursales_latitud":"-34.571895","sucursales_longitud":"-58.458683","incremento_pct":"16.43"},{"comercio_razon_social":"COTO CENTRO INTEGRAL DE COMERCIALIZACION S.A.","sucursales_tipo":"Supermercado","sucursales_calle":"Av. Emilio Castro","sucursales_nombre":"EMILIO CASTRO ","sucursales_latitud":"-34.656142","sucursales_longitud":"-58.524475","incremento_pct":"14.46"},{"comercio_razon_social":"COTO CENTRO INTEGRAL DE COMERCIALIZACION S.A.","sucursales_tipo":"Hipermercado","sucursales_calle":"Eugenia Tapia de Cruz","sucursales_nombre":"ESCOBAR","sucursales_latitud":"-34.349404","sucursales_longitud":"-58.799261","incremento_pct":"17.20"},{"comercio_razon_social":"COTO CENTRO INTEGRAL DE COMERCIALIZACION S.A.","sucursales_tipo":"Supermercado","sucursales_calle":"Tapia de Cruz","sucursales_nombre":"ESCOBAR ","sucursales_latitud":"-34.3456017","sucursales_longitud":"-58.7928537","incremento_pct":"16.57"},{"comercio_razon_social":"COTO CENTRO INTEGRAL DE COMERCIALIZACION S.A.","sucursales_tipo":"Supermercado","sucursales_calle":"AV. HOLDICH","sucursales_nombre":"ESQUEL 3","sucursales_latitud":"-42.914260","sucursales_longitud":"-71.298990","incremento_pct":"10.61"},{"comercio_razon_social":"COTO CENTRO INTEGRAL DE COMERCIALIZACION S.A.","sucursales_tipo":"Hipermercado","sucursales_calle":"Av. Eva Perón","sucursales_nombre":"EVA PERON ","sucursales_latitud":"-34.6561036","sucursales_longitud":"-58.4767969","incremento_pct":"15.33"},{"comercio_razon_social":"COTO CENTRO INTEGRAL DE COMERCIALIZACION S.A.","sucursales_tipo":"Hipermercado","sucursales_calle":"Reconquista","sucursales_nombre":"EZEIZA ","sucursales_latitud":"-34.8440028","sucursales_longitud":"-58.507952","incremento_pct":"10.61"},{"comercio_razon_social":"COTO CENTRO INTEGRAL DE COMERCIALIZACION S.A.","sucursales_tipo":"Tienda Fisica","sucursales_calle":"AV.SAN MARTIN - KM 9 -","sucursales_nombre":"Eldorado","sucursales_latitud":"-26.408442","sucursales_longitud":"-54.604314","incremento_pct":"17.04"},{"comercio_razon_social":"COTO CENTRO INTEGRAL DE COMERCIALIZACION S.A.","sucursales_tipo":"Supermercado","sucursales_calle":"Esmeralda","sucursales_nombre":"Esmeralda.","sucursales_latitud":"-34.5918","sucursales_longitud":"-58.3793","incremento_pct":"15.54"},{"comercio_razon_social":"COTO CENTRO INTEGRAL DE COMERCIALIZACION S.A.","sucursales_tipo":"Supermercado","sucursales_calle":"Esteco y rioja","sucursales_nombre":"Esteco.","sucursales_latitud":"-24.7981","sucursales_longitud":"-65.4168","incremento_pct":"14.18"},{"comercio_razon_social":"COTO CENTRO INTEGRAL DE COMERCIALIZACION S.A.","sucursales_tipo":"Supermercado","sucursales_calle":"Estrada","sucursales_nombre":"Estrada","sucursales_latitud":"-37.9532482","sucursales_longitud":"-57.5532565","incremento_pct":"17.75"},{"comercio_razon_social":"COTO CENTRO INTEGRAL DE COMERCIALIZACION S.A.","sucursales_tipo":"Tradicional","sucursales_calle":"AV. CALCHAQUI","sucursales_nombre":"FACTORY QUILMES","sucursales_latitud":"-34.759621","sucursales_longitud":"-58.2807983","incremento_pct":"12.66"},{"comercio_razon_social":"COTO CENTRO INTEGRAL DE COMERCIALIZACION S.A.","sucursales_tipo":"Hipermercado","sucursales_calle":"SAN MARTIN","sucursales_nombre":"FILIAL SAN MARTIN","sucursales_latitud":"-45.861050","sucursales_longitud":"-67.475180","incremento_pct":"16.43"},{"comercio_razon_social":"COTO CENTRO INTEGRAL DE COMERCIALIZACION S.A.","sucursales_tipo":"Hipermercado","sucursales_calle":"Venezuela","sucursales_nombre":"FISHERTON ROSARIO ","sucursales_latitud":"-32.9298072","sucursales_longitud":"-60.7249756","incremento_pct":"11.26"},{"comercio_razon_social":"COTO CENTRO INTEGRAL DE COMERCIALIZACION S.A.","sucursales_tipo":"Tradicional","sucursales_calle":"Florida","sucursales_nombre":"FLORIDA","sucursales_latitud":"-34.6046406","sucursales_longitud":"-58.3775124","incremento_pct":"18.06"},{"comercio_razon_social":"COTO CENTRO INTEGRAL DE COMERCIALIZACION S.A.","sucursales_tipo":"Supermercado","sucursales_calle":"Av. San Martin","sucursales_nombre":"FLORIDA ","sucursales_latitud":"-34.533164","sucursales_longitud":"-58.5024536","incremento_pct":"14.48"},{"comercio_razon_social":"COTO CENTRO INTEGRAL DE COMERCIALIZACION S.A.","sucursales_tipo":"Hipermercado","sucursales_calle":"French","sucursales_nombre":"FRENCH ","sucursales_latitud":"-34.5907212","sucursales_longitud":"-58.399403","incremento_pct":"13.24"},{"comercio_razon_social":"COTO CENTRO INTEGRAL DE COMERCIALIZACION S.A.","sucursales_tipo":"Supermercado","sucursales_calle":"Mitre","sucursales_nombre":"Fernandez Oro II","sucursales_latitud":"-38.952648418329176","sucursales_longitud":"-67.92718434342532","incremento_pct":"14.03"},{"comercio_razon_social":"COTO CENTRO INTEGRAL DE COMERCIALIZACION S.A.","sucursales_tipo":"Hipermercado","sucursales_calle":"Av. Gral. José de San Martín","sucursales_nombre":"Florencio Varela","sucursales_latitud":"-34.779585","sucursales_longitud":"-58.279265","incremento_pct":"12.08"},{"comercio_razon_social":"COTO CENTRO INTEGRAL DE COMERCIALIZACION S.A.","sucursales_tipo":"Tradicional","sucursales_calle":"Av. Rivadavia","sucursales_nombre":"Flores Mobile","sucursales_latitud":"-34.6269050","sucursales_longitud":"-58.4569000","incremento_pct":"20.13"},{"comercio_razon_social":"COTO CENTRO INTEGRAL DE COMERCIALIZACION S.A.","sucursales_tipo":"Tradicional","sucursales_calle":"Av. Rivadavia","sucursales_nombre":"Flores Vip","sucursales_latitud":"-34.6272170","sucursales_longitud":"-58.4577980","incremento_pct":"14.84"},{"comercio_razon_social":"COTO CENTRO INTEGRAL DE COMERCIALIZACION S.A.","sucursales_tipo":"Tradicional","sucursales_calle":"Av. 25 de Mayo","sucursales_nombre":"Formosa","sucursales_latitud":"-26.1822449","sucursales_longitud":"-58.1657752","incremento_pct":"13.09"},{"comercio_razon_social":"COTO CENTRO INTEGRAL DE COMERCIALIZACION S.A.","sucursales_tipo":"Hipermercado","sucursales_calle":"Av. Gustnisky","sucursales_nombre":"Formosa La Rural","sucursales_latitud":"-26.190381","sucursales_longitud":"-58.187564","incremento_pct":"17.46"},{"comercio_razon_social":"COTO CENTRO INTEGRAL DE COMERCIALIZACION S.A.","sucursales_tipo":"Supermercado","sucursales_calle":"MENDOZA","sucursales_nombre":"GALLEGOS 5","sucursales_latitud":"-51.615010","sucursales_longitud":"-69.227860","incremento_pct":"14.86"},{"comercio_razon_social":"COTO CENTRO INTEGRAL DE COMERCIALIZACION S.A.","sucursales_tipo":"Supermercado","sucursales_calle":"Gallo","sucursales_nombre":"GALLO ","sucursales_latitud":"-34.6056255","sucursales_longitud":"-58.4135635","incremento_pct":"7.89"},{"comercio_razon_social":"COTO CENTRO INTEGRAL DE COMERCIALIZACION S.A.","sucursales_tipo":"Hipermercado","sucursales_calle":"Av. Belgrano","sucursales_nombre":"GARIN ","sucursales_latitud":"-34.4179366","sucursales_longitud":"-58.7255946","incremento_pct":"11.19"},{"comercio_razon_social":"COTO CENTRO INTEGRAL DE COMERCIALIZACION S.A.","sucursales_tipo":"Supermercado","sucursales_calle":"CALLE 7","sucursales_nombre":"GENERAL PICO","sucursales_latitud":"-35.655920","sucursales_longitud":"-63.757040","incremento_pct":"12.31"},{"comercio_razon_social":"COTO CENTRO INTEGRAL DE COMERCIALIZACION S.A.","sucursales_tipo":"Supermercado","sucursales_calle":"SAN JUAN","sucursales_nombre":"GENERAL ROCA 3","sucursales_latitud":"-39.027930","sucursales_longitud":"-67.590070","incremento_pct":"11.09"},{"comercio_razon_social":"COTO CENTRO INTEGRAL DE COMERCIALIZACION S.A.","sucursales_tipo":"Hipermercado","sucursales_calle":"Segurola","sucursales_nombre":"GEORGALOS ","sucursales_latitud":"-34.6204884","sucursales_longitud":"-58.4992502","incremento_pct":"13.18"},{"comercio_razon_social":"COTO CENTRO INTEGRAL DE COMERCIALIZACION S.A.","sucursales_tipo":"Supermercado","sucursales_calle":"SAN MARTIN","sucursales_nombre":"GOBERNADOR GREGORES","sucursales_latitud":"-48.750440","sucursales_longitud":"-70.247610","incremento_pct":"11.19"},{"comercio_razon_social":"COTO CENTRO INTEGRAL DE COMERCIALIZACION S.A.","sucursales_tipo":"Mayorista","sucursales_calle":"Avda Juan de Garay 1206","sucursales_nombre":"Garay","sucursales_latitud":"-34.62693","sucursales_longitud":"-58.38303","incremento_pct":"17.04"},{"comercio_razon_social":"COTO CENTRO INTEGRAL DE COMERCIALIZACION S.A.","sucursales_tipo":"Supermercado","sucursales_calle":"GASCON ESTEBAN AGUSTIN","sucursales_nombre":"Gascón.","sucursales_latitud":"-34.6033","sucursales_longitud":"-58.4264","incremento_pct":"14.45"},{"comercio_razon_social":"COTO CENTRO INTEGRAL DE COMERCIALIZACION S.A.","sucursales_tipo":"Supermercado","sucursales_calle":"Don Bosco","sucursales_nombre":"General Acha","sucursales_latitud":"-37.37872927469224","sucursales_longitud":"-64.60075950635655","incremento_pct":"16.81"},{"comercio_razon_social":"COTO CENTRO INTEGRAL DE COMERCIALIZACION S.A.","sucursales_tipo":"Supermercado","sucursales_calle":"General Paz","sucursales_nombre":"General Paz","sucursales_latitud":"-38.72","sucursales_longitud":"-62.257799999999975","incremento_pct":"14.30"},{"comercio_razon_social":"COTO CENTRO INTEGRAL DE COMERCIALIZACION S.A.","sucursales_tipo":"Supermercado","sucursales_calle":"25 de Mayo","sucursales_nombre":"General Roca","sucursales_latitud":"-39.030326","sucursales_longitud":"-67.573775","incremento_pct":"14.79"},{"comercio_razon_social":"COTO CENTRO INTEGRAL DE COMERCIALIZACION S.A.","sucursales_tipo":"Autoservicio","sucursales_calle":"Julio A Roca","sucursales_nombre":"General Roca","sucursales_latitud":"-39.0289802","sucursales_longitud":"-67.5782917","incremento_pct":"13.64"},{"comercio_razon_social":"COTO CENTRO INTEGRAL DE COMERCIALIZACION S.A.","sucursales_tipo":"Tradicional","sucursales_calle":"Tucuman","sucursales_nombre":"General Roca","sucursales_latitud":"-38.9448310","sucursales_longitud":"-68.0520340","incremento_pct":"11.24"},{"comercio_razon_social":"COTO CENTRO INTEGRAL DE COMERCIALIZACION S.A.","sucursales_tipo":"Supermercado","sucursales_calle":"Boulevard y 112","sucursales_nombre":"Gesell Boulevard.","sucursales_latitud":"-37.2611","sucursales_longitud":"-56.9869","incremento_pct":"11.22"},{"comercio_razon_social":"COTO CENTRO INTEGRAL DE COMERCIALIZACION S.A.","sucursales_tipo":"Hipermercado","sucursales_calle":"Av. Hipólito Yrigoyen","sucursales_nombre":"Glew","sucursales_latitud":"-34.883091","sucursales_longitud":"-58.388230","incremento_pct":"13.98"},{"comercio_razon_social":"COTO CENTRO INTEGRAL DE COMERCIALIZACION S.A.","sucursales_tipo":"Supermercado","sucursales_calle":"Calle N°1 Oeste","sucursales_nombre":"Gral. Pico","sucursales_latitud":"-35.666879647168656","sucursales_longitud":"-63.77597430949379","incremento_pct":"12.92"},{"comercio_razon_social":"COTO CENTRO INTEGRAL DE COMERCIALIZACION S.A.","sucursales_tipo":"Autoservicio","sucursales_calle":"Calle 13","sucursales_nombre":"Gral. Pico I","sucursales_latitud":"-35.6598318","sucursales_longitud":"-63.7559761","incremento_pct":"17.59"},{"comercio_razon_social":"COTO CENTRO INTEGRAL DE COMERCIALIZACION S.A.","sucursales_tipo":"Hipermercado","sucursales_calle":"Tucumán","sucursales_nombre":"Gral. Roca I","sucursales_latitud":"-39.02770092079763","sucursales_longitud":"-67.58329921964105","incremento_pct":"13.41"},{"comercio_razon_social":"COTO CENTRO INTEGRAL DE COMERCIALIZACION S.A.","sucursales_tipo":"Supermercado","sucursales_calle":"Tucumán","sucursales_nombre":"Gral. Roca II","sucursales_latitud":"-39.02938240761715","sucursales_longitud":"-67.56962531808313","incremento_pct":"14.16"},{"comercio_razon_social":"COTO CENTRO INTEGRAL DE COMERCIALIZACION S.A.","sucursales_tipo":"Supermercado","sucursales_calle":"Castelli","sucursales_nombre":"Gral. Villegas","sucursales_latitud":"-35.02964231976656","sucursales_longitud":"-63.01698911196581","incremento_pct":"13.15"},{"comercio_razon_social":"COTO CENTRO INTEGRAL DE COMERCIALIZACION S.A.","sucursales_tipo":"Tradicional","sucursales_calle":"Av. Eva Duarte de Peron","sucursales_nombre":"Grand Bourg","sucursales_latitud":"-34.4867880","sucursales_longitud":"-58.7258440","incremento_pct":"13.37"},{"comercio_razon_social":"COTO CENTRO INTEGRAL DE COMERCIALIZACION S.A.","sucursales_tipo":"Supermercado","sucursales_calle":"Urquiza","sucursales_nombre":"Gualeguaychu","sucursales_latitud":"-33.0088104","sucursales_longitud":"-58.5194928","incremento_pct":"14.45"},{"comercio_razon_social":"COTO CENTRO INTEGRAL DE COMERCIALIZACION S.A.","sucursales_tipo":"Supermercado","sucursales_calle":"Balcarce","sucursales_nombre":"Guido","sucursales_latitud":"-37.9879093","sucursales_longitud":"-57.5586834","incremento_pct":"17.20"},{"comercio_razon_social":"COTO CENTRO INTEGRAL DE COMERCIALIZACION S.A.","sucursales_tipo":"Supermercado","sucursales_calle":"Hipolito Yrigoyen","sucursales_nombre":"H.YRIGOYEN ","sucursales_latitud":"-34.614634","sucursales_longitud":"-58.420517","incremento_pct":"17.04"},{"comercio_razon_social":"COTO CENTRO INTEGRAL DE COMERCIALIZACION S.A.","sucursales_tipo":"Supermercado","sucursales_calle":"ANTARTIDA ARGENTINA","sucursales_nombre":"HIPERMERCADO NEUQUEN","sucursales_latitud":"-38.947000","sucursales_longitud":"-68.073420","incremento_pct":"13.37"},{"comercio_razon_social":"COTO CENTRO INTEGRAL DE COMERCIALIZACION S.A.","sucursales_tipo":"Autoservicio","sucursales_calle":"ANDRES ROLON 51 y BERNABE MARQ","sucursales_nombre":"HIPODROMO","sucursales_latitud":"-34.48164","sucursales_longitud":"-58.52754","incremento_pct":"11.27"},{"comercio_razon_social":"COTO CENTRO INTEGRAL DE COMERCIALIZACION S.A.","sucursales_tipo":"Hipermercado","sucursales_calle":"Honduras","sucursales_nombre":"HONDURAS ","sucursales_latitud":"-34.5941284","sucursales_longitud":"-58.417548","incremento_pct":"13.98"},{"comercio_razon_social":"COTO CENTRO INTEGRAL DE COMERCIALIZACION S.A.","sucursales_tipo":"Supermercado","sucursales_calle":"Florida","sucursales_nombre":"Henderson","sucursales_latitud":"-36.300960764981355","sucursales_longitud":"-61.71770417699008","incremento_pct":"12.09"},{"comercio_razon_social":"COTO CENTRO INTEGRAL DE COMERCIALIZACION S.A.","sucursales_tipo":"Hipermercado","sucursales_calle":"Sarmiento","sucursales_nombre":"Hiper Shopping","sucursales_latitud":"-38.6986","sucursales_longitud":"-62.2441","incremento_pct":"15.37"},{"comercio_razon_social":"COTO CENTRO INTEGRAL DE COMERCIALIZACION S.A.","sucursales_tipo":"Supermercado","sucursales_calle":"Av. 25 de Mayo","sucursales_nombre":"Hipervisión","sucursales_latitud":"-37.976660596903315","sucursales_longitud":"-61.359823822713224","incremento_pct":"13.33"},{"comercio_razon_social":"COTO CENTRO INTEGRAL DE COMERCIALIZACION S.A.","sucursales_tipo":"Supermercado","sucursales_calle":"Camino de cintura Gobernador Vergara","sucursales_nombre":"Hurlingham.","sucursales_latitud":"-34.6031","sucursales_longitud":"-58.6354","incremento_pct":"16.47"},{"comercio_razon_social":"COTO CENTRO INTEGRAL DE COMERCIALIZACION S.A.","sucursales_tipo":"Supermercado","sucursales_calle":"AV. SARMIENTO","sucursales_nombre":"INTENDENTE ALVEAR","sucursales_latitud":"-35.250090","sucursales_longitud":"-63.600530","incremento_pct":"13.09"},{"comercio_razon_social":"COTO CENTRO INTEGRAL DE COMERCIALIZACION S.A.","sucursales_tipo":"Hipermercado","sucursales_calle":"Av. Gaona","sucursales_nombre":"IVONNE ","sucursales_latitud":"-34.6121149","sucursales_longitud":"-58.4550437","incremento_pct":"11.35"},{"comercio_razon_social":"COTO CENTRO INTEGRAL DE COMERCIALIZACION S.A.","sucursales_tipo":"Tienda Fisica","sucursales_calle":"AV.REP.ARGENTINA","sucursales_nombre":"Iguazú","sucursales_latitud":"-25.602360","sucursales_longitud":"-54.572910","incremento_pct":"9.65"},{"comercio_razon_social":"COTO CENTRO INTEGRAL DE COMERCIALIZACION S.A.","sucursales_tipo":"Supermercado","sucursales_calle":"Av. Colón","sucursales_nombre":"Ing. Huergo","sucursales_latitud":"-39.070567747172106","sucursales_longitud":"-67.23163378405303","incremento_pct":"7.89"},{"comercio_razon_social":"COTO CENTRO INTEGRAL DE COMERCIALIZACION S.A.","sucursales_tipo":"Supermercado","sucursales_calle":"Juan B. Justo","sucursales_nombre":"J. B. Justo..","sucursales_latitud":"-38.0244","sucursales_longitud":"-57.5659","incremento_pct":"17.46"},{"comercio_razon_social":"COTO CENTRO INTEGRAL DE COMERCIALIZACION S.A.","sucursales_tipo":"Supermercado","sucursales_calle":"Av. Alvarez Jonte","sucursales_nombre":"JONTE ","sucursales_latitud":"-34.6073757","sucursales_longitud":"-58.477492","incremento_pct":"15.37"},{"comercio_razon_social":"COTO CENTRO INTEGRAL DE COMERCIALIZACION S.A.","sucursales_tipo":"Hipermercado","sucursales_calle":"Hipolito Yrigoyen","sucursales_nombre":"JOSE C. PAZ ","sucursales_latitud":"-34.519576","sucursales_longitud":"-58.7531003","incremento_pct":"7.86"},{"comercio_razon_social":"COTO CENTRO INTEGRAL DE COMERCIALIZACION S.A.","sucursales_tipo":"Hipermercado","sucursales_calle":"Juan Pablo II","sucursales_nombre":"JOSÉ C. PAZ","sucursales_latitud":"-34.5210567","sucursales_longitud":"-58.7529606","incremento_pct":"15.65"},{"comercio_razon_social":"COTO CENTRO INTEGRAL DE COMERCIALIZACION S.A.","sucursales_tipo":"Supermercado","sucursales_calle":"Av. J. de Garay","sucursales_nombre":"JUAN DE GARAY ","sucursales_latitud":"-34.628905","sucursales_longitud":"-58.402557","incremento_pct":"17.73"},{"comercio_razon_social":"COTO CENTRO INTEGRAL DE COMERCIALIZACION S.A.","sucursales_tipo":"Supermercado","sucursales_calle":"RUTA 7 KM","sucursales_nombre":"JUNIN","sucursales_latitud":"-34.607170","sucursales_longitud":"-60.962520","incremento_pct":"15.33"},{"comercio_razon_social":"COTO CENTRO INTEGRAL DE COMERCIALIZACION S.A.","sucursales_tipo":"Supermercado","sucursales_calle":"Junín","sucursales_nombre":"JUNIN ","sucursales_latitud":"-34.5960054","sucursales_longitud":"-58.3973971","incremento_pct":"15.88"},{"comercio_razon_social":"COTO CENTRO INTEGRAL DE COMERCIALIZACION S.A.","sucursales_tipo":"Hipermercado","sucursales_calle":"Av. Arias","sucursales_nombre":"JUNÍN","sucursales_latitud":"-34.5933501","sucursales_longitud":"-60.948095","incremento_pct":"16.70"},{"comercio_razon_social":"COTO CENTRO INTEGRAL DE COMERCIALIZACION S.A.","sucursales_tipo":"Tradicional","sucursales_calle":"Hipolito Yrigoyen","sucursales_nombre":"Jose C. Paz","sucursales_latitud":"-34.5194971","sucursales_longitud":"-58.7529176","incremento_pct":"14.30"},{"comercio_razon_social":"COTO CENTRO INTEGRAL DE COMERCIALIZACION S.A.","sucursales_tipo":"Tradicional","sucursales_calle":"Gral. Belgrano","sucursales_nombre":"Jujuy","sucursales_latitud":"-24.1853401","sucursales_longitud":"-65.3033030","incremento_pct":"11.94"},{"comercio_razon_social":"COTO CENTRO INTEGRAL DE COMERCIALIZACION S.A.","sucursales_tipo":"Supermercado","sucursales_calle":"Av. 19 de Abril","sucursales_nombre":"Jujuy II","sucursales_latitud":"-24.188920","sucursales_longitud":"-65.303701","incremento_pct":"13.08"},{"comercio_razon_social":"COTO CENTRO INTEGRAL DE COMERCIALIZACION S.A.","sucursales_tipo":"Supermercado","sucursales_calle":"Avenida Las Heras gral. Juan Gregori","sucursales_nombre":"Jumbo Las Heras","sucursales_latitud":"-34.6147","sucursales_longitud":"-58.4350","incremento_pct":"16.33"},{"comercio_razon_social":"COTO CENTRO INTEGRAL DE COMERCIALIZACION S.A.","sucursales_tipo":"Supermercado","sucursales_calle":"Roque Saenz Peña","sucursales_nombre":"Junin","sucursales_latitud":"-34.5901720","sucursales_longitud":"-60.9466330","incremento_pct":"16.25"},{"comercio_razon_social":"COTO CENTRO INTEGRAL DE COMERCIALIZACION S.A.","sucursales_tipo":"Supermercado","sucursales_calle":"Juramento","sucursales_nombre":"Juramento","sucursales_latitud":"-34.565100","sucursales_longitud":"-58.462056","incremento_pct":"11.79"},{"comercio_razon_social":"COTO CENTRO INTEGRAL DE COMERCIALIZACION S.A.","sucursales_tipo":"Hipermercado","sucursales_calle":"Uruguay","sucursales_nombre":"LA HORQUETA ","sucursales_latitud":"-34.474499","sucursales_longitud":"-58.574853","incremento_pct":"11.84"},{"comercio_razon_social":"COTO CENTRO INTEGRAL DE COMERCIALIZACION S.A.","sucursales_tipo":"Autoservicio","sucursales_calle":"LIBERTADOR 3402","sucursales_nombre":"LA LUCILA","sucursales_latitud":"-34.49855","sucursales_longitud":"-58.48434","incremento_pct":"11.79"},{"comercio_razon_social":"COTO CENTRO INTEGRAL DE COMERCIALIZACION S.A.","sucursales_tipo":"Autoservicio","sucursales_calle":"AV. 7 ESQ. 45","sucursales_nombre":"LA PLATA","sucursales_latitud":"-34.911498","sucursales_longitud":"-57.956494","incremento_pct":"11.46"},{"comercio_razon_social":"COTO CENTRO INTEGRAL DE COMERCIALIZACION S.A.","sucursales_tipo":"Autoservicio","sucursales_calle":"DIAGONAL 74 ESQ. 18 Y 19","sucursales_nombre":"LA PLATA","sucursales_latitud":"-34.930175","sucursales_longitud":"-57.953545","incremento_pct":"9.06"},{"comercio_razon_social":"COTO CENTRO INTEGRAL DE COMERCIALIZACION S.A.","sucursales_tipo":"Supermercado","sucursales_calle":"calle 43","sucursales_nombre":"LA PLATA ","sucursales_latitud":"-34.9132587","sucursales_longitud":"-57.9601721","incremento_pct":"13.09"},{"comercio_razon_social":"COTO CENTRO INTEGRAL DE COMERCIALIZACION S.A.","sucursales_tipo":"Tradicional","sucursales_calle":"CALLE 8","sucursales_nombre":"LA PLATA  MOBILE","sucursales_latitud":"-34.9145360","sucursales_longitud":"-57.9525280","incremento_pct":"15.88"},{"comercio_razon_social":"COTO CENTRO INTEGRAL DE COMERCIALIZACION S.A.","sucursales_tipo":"Supermercado","sucursales_calle":"Mendoza","sucursales_nombre":"LA REINA","sucursales_latitud":"-32.9446397","sucursales_longitud":"-60.6778049","incremento_pct":"14.73"},{"comercio_razon_social":"COTO CENTRO INTEGRAL DE COMERCIALIZACION S.A.","sucursales_tipo":"Hipermercado","sucursales_calle":"Av. B. Rivadavia","sucursales_nombre":"LANUS ","sucursales_latitud":"-34.6904098","sucursales_longitud":"-58.4205743","incremento_pct":"12.92"},{"comercio_razon_social":"COTO CENTRO INTEGRAL DE COMERCIALIZACION S.A.","sucursales_tipo":"Hipermercado","sucursales_calle":"Av. Hipolito Yrigoyen","sucursales_nombre":"LANUS ","sucursales_latitud":"-34.7269341","sucursales_longitud":"-58.3956649","incremento_pct":"20.13"},{"comercio_razon_social":"COTO CENTRO INTEGRAL DE COMERCIALIZACION S.A.","sucursales_tipo":"Supermercado","sucursales_calle":" Larrazabal","sucursales_nombre":"LARRAZABAL ","sucursales_latitud":"-34.671088","sucursales_longitud":"-58.47915","incremento_pct":"16.33"},{"comercio_razon_social":"COTO CENTRO INTEGRAL DE COMERCIALIZACION S.A.","sucursales_tipo":"Supermercado","sucursales_calle":"PUNTA VILLARINO","sucursales_nombre":"LAS GRUTAS","sucursales_latitud":"-40.794540","sucursales_longitud":"-65.075880","incremento_pct":"8.33"},{"comercio_razon_social":"COTO CENTRO INTEGRAL DE COMERCIALIZACION S.A.","sucursales_tipo":"Hipermercado","sucursales_calle":"PTO. SANTA CRUZ","sucursales_nombre":"LAS HERAS","sucursales_latitud":"-46.546390","sucursales_longitud":"-68.927910","incremento_pct":"11.27"},{"comercio_razon_social":"COTO CENTRO INTEGRAL DE COMERCIALIZACION S.A.","sucursales_tipo":"Supermercado","sucursales_calle":"Jorge Newbery","sucursales_nombre":"LAS LOMAS ","sucursales_latitud":"-34.4808246","sucursales_longitud":"-58.5376011","incremento_pct":"13.37"},{"comercio_razon_social":"COTO CENTRO INTEGRAL DE COMERCIALIZACION S.A.","sucursales_tipo":"Supermercado","sucursales_calle":"Av. Libertador","sucursales_nombre":"LIBERTADOR ","sucursales_latitud":"-34.5491869","sucursales_longitud":"-58.4544449","incremento_pct":"12.36"},{"comercio_razon_social":"COTO CENTRO INTEGRAL DE COMERCIALIZACION S.A.","sucursales_tipo":"Supermercado","sucursales_calle":"ITUZAINGO","sucursales_nombre":"LINCOLN","sucursales_latitud":"-34.863540","sucursales_longitud":"-61.528660","incremento_pct":"13.08"},{"comercio_razon_social":"COTO CENTRO INTEGRAL DE COMERCIALIZACION S.A.","sucursales_tipo":"Supermercado","sucursales_calle":"Lope de Vega","sucursales_nombre":"LOPE DE VEGA ","sucursales_latitud":"-34.623834","sucursales_longitud":"-58.512072","incremento_pct":"14.35"},{"comercio_razon_social":"COTO CENTRO INTEGRAL DE COMERCIALIZACION S.A.","sucursales_tipo":"Supermercado","sucursales_calle":"Av. Lope de Vega","sucursales_nombre":"LOPEZ DE VEGA ","sucursales_latitud":"-34.618273","sucursales_longitud":"-58.519287","incremento_pct":"18.79"},{"comercio_razon_social":"COTO CENTRO INTEGRAL DE COMERCIALIZACION S.A.","sucursales_tipo":"Supermercado","sucursales_calle":"Av. Piedrabuena","sucursales_nombre":"LUGANO ","sucursales_latitud":"-34.687601","sucursales_longitud":"-58.47536","incremento_pct":"18.48"},{"comercio_razon_social":"COTO CENTRO INTEGRAL DE COMERCIALIZACION S.A.","sucursales_tipo":"Hipermercado","sucursales_calle":"Soldado de la Frontera","sucursales_nombre":"LUGANO ","sucursales_latitud":"-34.6845178","sucursales_longitud":"-58.4641447","incremento_pct":"15.66"},{"comercio_razon_social":"COTO CENTRO INTEGRAL DE COMERCIALIZACION S.A.","sucursales_tipo":"Supermercado","sucursales_calle":"MARTIN FIERRO","sucursales_nombre":"LURO","sucursales_latitud":"-36.627600","sucursales_longitud":"-64.281490","incremento_pct":"11.94"},{"comercio_razon_social":"COTO CENTRO INTEGRAL DE COMERCIALIZACION S.A.","sucursales_tipo":"Autoservicio","sucursales_calle":"Ruta 7 km","sucursales_nombre":"La Anonima","sucursales_latitud":"-34.6033402","sucursales_longitud":"-60.9879170","incremento_pct":"17.75"},{"comercio_razon_social":"COTO CENTRO INTEGRAL DE COMERCIALIZACION S.A.","sucursales_tipo":"Autoservicio","sucursales_calle":"Boulevard Velez Sarsfield","sucursales_nombre":"La Carlota","sucursales_latitud":"-33.4179995","sucursales_longitud":"-63.2992617","incremento_pct":"15.37"},{"comercio_razon_social":"COTO CENTRO INTEGRAL DE COMERCIALIZACION S.A.","sucursales_tipo":"Supermercado","sucursales_calle":"Blanco Encalada","sucursales_nombre":"La Horqueta.","sucursales_latitud":"-34.4769","sucursales_longitud":"-58.5733","incremento_pct":"15.14"},{"comercio_razon_social":"COTO CENTRO INTEGRAL DE COMERCIALIZACION S.A.","sucursales_tipo":"Hipermercado","sucursales_calle":"Avenida 7","sucursales_nombre":"La Plata","sucursales_latitud":"-34.91841417701545","sucursales_longitud":"-57.94456619607063","incremento_pct":"14.79"},{"comercio_razon_social":"COTO CENTRO INTEGRAL DE COMERCIALIZACION S.A.","sucursales_tipo":"Supermercado","sucursales_calle":"Calle 7","sucursales_nombre":"La Plata I","sucursales_latitud":"-34.913497","sucursales_longitud":"-57.951821","incremento_pct":"12.31"},{"comercio_razon_social":"COTO CENTRO INTEGRAL DE COMERCIALIZACION S.A.","sucursales_tipo":"Supermercado","sucursales_calle":"Calle 30 y Calle 47","sucursales_nombre":"La Plata I.","sucursales_latitud":"-34.9349","sucursales_longitud":"-57.9757","incremento_pct":"15.37"},{"comercio_razon_social":"COTO CENTRO INTEGRAL DE COMERCIALIZACION S.A.","sucursales_tipo":"Tradicional","sucursales_calle":"Calle 12 esq. 58","sucursales_nombre":"La Plata Nueva","sucursales_latitud":"-34.9239400","sucursales_longitud":"-57.9487080","incremento_pct":"16.00"},{"comercio_razon_social":"COTO CENTRO INTEGRAL DE COMERCIALIZACION S.A.","sucursales_tipo":"Supermercado","sucursales_calle":"Rivadavia","sucursales_nombre":"La Rioja","sucursales_latitud":"-29.4146061","sucursales_longitud":"-66.8554970","incremento_pct":"7.89"},{"comercio_razon_social":"COTO CENTRO INTEGRAL DE COMERCIALIZACION S.A.","sucursales_tipo":"Tradicional","sucursales_calle":"Av Luro","sucursales_nombre":"Laferrere","sucursales_latitud":"-34.7485525","sucursales_longitud":"-58.5872483","incremento_pct":"18.79"},{"comercio_razon_social":"COTO CENTRO INTEGRAL DE COMERCIALIZACION S.A.","sucursales_tipo":"Supermercado","sucursales_calle":"Azcuénaga","sucursales_nombre":"Lamadrid","sucursales_latitud":"-37.25074912158641","sucursales_longitud":"-61.263395190271694","incremento_pct":"17.46"},{"comercio_razon_social":"COTO CENTRO INTEGRAL DE COMERCIALIZACION S.A.","sucursales_tipo":"Mayorista","sucursales_calle":"Av. Hipolito Yrigoyen 4474","sucursales_nombre":"Lanus","sucursales_latitud":"-34.70617","sucursales_longitud":"-58.39152","incremento_pct":"17.59"},{"comercio_razon_social":"COTO CENTRO INTEGRAL DE COMERCIALIZACION S.A.","sucursales_tipo":"Supermercado","sucursales_calle":"AVENIDA YRIGOYEN PRESIDENTE HIPOLITO","sucursales_nombre":"Lanús.","sucursales_latitud":"-34.7031","sucursales_longitud":"-58.3939","incremento_pct":"16.87"},{"comercio_razon_social":"COTO CENTRO INTEGRAL DE COMERCIALIZACION S.A.","sucursales_tipo":"Supermercado","sucursales_calle":"Av. San Martín","sucursales_nombre":"Laprida","sucursales_latitud":"-37.543647060773054","sucursales_longitud":"-60.79845738577575","incremento_pct":"13.21"},{"comercio_razon_social":"COTO CENTRO INTEGRAL DE COMERCIALIZACION S.A.","sucursales_tipo":"Supermercado","sucursales_calle":"Saavedra","sucursales_nombre":"Las Lajas","sucursales_latitud":"-38.52552153597177","sucursales_longitud":"-70.36269381872404","incremento_pct":"11.24"},{"comercio_razon_social":"COTO CENTRO INTEGRAL DE COMERCIALIZACION S.A.","sucursales_tipo":"Hipermercado","sucursales_calle":"Libertad","sucursales_nombre":"Libertad","sucursales_latitud":"-37.9779232","sucursales_longitud":"-57.5761531","incremento_pct":"17.04"},{"comercio_razon_social":"COTO CENTRO INTEGRAL DE COMERCIALIZACION S.A.","sucursales_tipo":"Supermercado","sucursales_calle":"Guemes","sucursales_nombre":"Lincoln","sucursales_latitud":"-35.1421680","sucursales_longitud":"-61.9591500","incremento_pct":"18.16"},{"comercio_razon_social":"COTO CENTRO INTEGRAL DE COMERCIALIZACION S.A.","sucursales_tipo":"Tradicional","sucursales_calle":"Av. Rivadavia","sucursales_nombre":"Liniers","sucursales_latitud":"-34.6392887","sucursales_longitud":"-58.5280242","incremento_pct":"17.73"},{"comercio_razon_social":"COTO CENTRO INTEGRAL DE COMERCIALIZACION S.A.","sucursales_tipo":"Hipermercado","sucursales_calle":"Santiago del Estero","sucursales_nombre":"Local 2","sucursales_latitud":"-27.373226","sucursales_longitud":"-55.897406","incremento_pct":"16.25"},{"comercio_razon_social":"COTO CENTRO INTEGRAL DE COMERCIALIZACION S.A.","sucursales_tipo":"Hipermercado","sucursales_calle":"Av. Tambor de Tacuari","sucursales_nombre":"Local 6","sucursales_latitud":"-27.365024","sucursales_longitud":"-55.95188","incremento_pct":"18.16"},{"comercio_razon_social":"COTO CENTRO INTEGRAL DE COMERCIALIZACION S.A.","sucursales_tipo":"Hipermercado","sucursales_calle":"Av. Santa Catalina ","sucursales_nombre":"Local 7","sucursales_latitud":"-27.371972","sucursales_longitud":"-55.909678","incremento_pct":"17.73"},{"comercio_razon_social":"COTO CENTRO INTEGRAL DE COMERCIALIZACION S.A.","sucursales_tipo":"Autoservicio","sucursales_calle":"Av. San Martín esq. Sarmi","sucursales_nombre":"Loncopue","sucursales_latitud":"-38.07324923015833","sucursales_longitud":"-70.61682875455517","incremento_pct":"14.28"},{"comercio_razon_social":"COTO CENTRO INTEGRAL DE COMERCIALIZACION S.A.","sucursales_tipo":"Supermercado","sucursales_calle":"Avellaneda","sucursales_nombre":"Luis Beltran","sucursales_latitud":"-39.311137921000686","sucursales_longitud":"-65.76214027474634","incremento_pct":"11.35"},{"comercio_razon_social":"COTO CENTRO INTEGRAL DE COMERCIALIZACION S.A.","sucursales_tipo":"Tradicional","sucursales_calle":"San Martin","sucursales_nombre":"Lujan","sucursales_latitud":"-34.5647900","sucursales_longitud":"-59.1185810","incremento_pct":"15.37"},{"comercio_razon_social":"COTO CENTRO INTEGRAL DE COMERCIALIZACION S.A.","sucursales_tipo":"Autoservicio","sucursales_calle":"Taboada","sucursales_nombre":"Lujan de Cuyo","sucursales_latitud":"-33.0372730","sucursales_longitud":"-68.8809340","incremento_pct":"12.09"},{"comercio_razon_social":"COTO CENTRO INTEGRAL DE COMERCIALIZACION S.A.","sucursales_tipo":"Supermercado","sucursales_calle":"25 DE MAYO","sucursales_nombre":"Luján.","sucursales_latitud":"-34.5623","sucursales_longitud":"-59.1199","incremento_pct":"12.91"},{"comercio_razon_social":"COTO CENTRO INTEGRAL DE COMERCIALIZACION S.A.","sucursales_tipo":"Supermercado","sucursales_calle":"AVENIDA LURO PEDRO","sucursales_nombre":"Luro y Guido","sucursales_latitud":"-37.9922","sucursales_longitud":"-57.5587","incremento_pct":"13.98"},{"comercio_razon_social":"COTO CENTRO INTEGRAL DE COMERCIALIZACION S.A.","sucursales_tipo":"Hipermercado","sucursales_calle":"Ruta 11 km","sucursales_nombre":"MADARIAGA ","sucursales_latitud":"-37.185485","sucursales_longitud":"-56.951625","incremento_pct":"14.71"},{"comercio_razon_social":"COTO CENTRO INTEGRAL DE COMERCIALIZACION S.A.","sucursales_tipo":"Hipermercado","sucursales_calle":"San Martin","sucursales_nombre":"MAR DE AJO ","sucursales_latitud":"-36.7214462","sucursales_longitud":"-56.6768593","incremento_pct":"12.08"},{"comercio_razon_social":"COTO CENTRO INTEGRAL DE COMERCIALIZACION S.A.","sucursales_tipo":"Hipermercado","sucursales_calle":"Ruta 11 km ","sucursales_nombre":"MAR DEL TUYU ","sucursales_latitud":"-36.58216639","sucursales_longitud":"-56.71463675","incremento_pct":"11.96"},{"comercio_razon_social":"COTO CENTRO INTEGRAL DE COMERCIALIZACION S.A.","sucursales_tipo":"Hipermercado","sucursales_calle":"Maure","sucursales_nombre":"MAURE ","sucursales_latitud":"-34.5668975","sucursales_longitud":"-58.4361596","incremento_pct":"11.46"},{"comercio_razon_social":"COTO CENTRO INTEGRAL DE COMERCIALIZACION S.A.","sucursales_tipo":"Hipermercado","sucursales_calle":"Av. Peru","sucursales_nombre":"MENDOZA ","sucursales_latitud":"-32.871591","sucursales_longitud":"-68.843574","incremento_pct":"10.04"},{"comercio_razon_social":"COTO CENTRO INTEGRAL DE COMERCIALIZACION S.A.","sucursales_tipo":"Hipermercado","sucursales_calle":"Av. Juan Domingo Peron ","sucursales_nombre":"MERLO                                                       ","sucursales_latitud":"-34.6668202","sucursales_longitud":"-58.703197","incremento_pct":"8.33"},{"comercio_razon_social":"COTO CENTRO INTEGRAL DE COMERCIALIZACION S.A.","sucursales_tipo":"Supermercado","sucursales_calle":"Bartolomé Mitre","sucursales_nombre":"MITRE ","sucursales_latitud":"-34.6077047","sucursales_longitud":"-58.3879012","incremento_pct":"15.62"},{"comercio_razon_social":"COTO CENTRO INTEGRAL DE COMERCIALIZACION S.A.","sucursales_tipo":"Supermercado","sucursales_calle":"Av. Monroe","sucursales_nombre":"MONROE ","sucursales_latitud":"-34.5635828","sucursales_longitud":"-58.4684123","incremento_pct":"15.36"},{"comercio_razon_social":"COTO CENTRO INTEGRAL DE COMERCIALIZACION S.A.","sucursales_tipo":"Hipermercado","sucursales_calle":"Boulevar Bs. As.","sucursales_nombre":"MONTE GRANDE ","sucursales_latitud":"-34.814703","sucursales_longitud":"-58.456994","incremento_pct":"11.94"},{"comercio_razon_social":"COTO CENTRO INTEGRAL DE COMERCIALIZACION S.A.","sucursales_tipo":"Hipermercado","sucursales_calle":"Av. Victorica","sucursales_nombre":"MORENO                                                      ","sucursales_latitud":"-34.6407405","sucursales_longitud":"-58.79411649999","incremento_pct":"9.54"},{"comercio_razon_social":"COTO CENTRO INTEGRAL DE COMERCIALIZACION S.A.","sucursales_tipo":"Hipermercado","sucursales_calle":"Gral. Juan Jose Valle","sucursales_nombre":"MORON ","sucursales_latitud":"-34.6502131","sucursales_longitud":"-58.6264209","incremento_pct":"9.65"},{"comercio_razon_social":"COTO CENTRO INTEGRAL DE COMERCIALIZACION S.A.","sucursales_tipo":"Hipermercado","sucursales_calle":"Rivadavia","sucursales_nombre":"MORÓN","sucursales_latitud":"-34.649293","sucursales_longitud":"-58.6233967","incremento_pct":"16.25"},{"comercio_razon_social":"COTO CENTRO INTEGRAL DE COMERCIALIZACION S.A.","sucursales_tipo":"Hipermercado","sucursales_calle":"Av. Mitre","sucursales_nombre":"MUNRO","sucursales_latitud":"-34.5239629","sucursales_longitud":"-58.5208208","incremento_pct":"12.67"},{"comercio_razon_social":"COTO CENTRO INTEGRAL DE COMERCIALIZACION S.A.","sucursales_tipo":"Supermercado","sucursales_calle":"Murillo","sucursales_nombre":"MURILLO ","sucursales_latitud":"-34.6017899","sucursales_longitud":"-58.44255","incremento_pct":"14.03"},{"comercio_razon_social":"COTO CENTRO INTEGRAL DE COMERCIALIZACION S.A.","sucursales_tipo":"Tradicional","sucursales_calle":"Av. Luro","sucursales_nombre":"Mar Del Plata","sucursales_latitud":"-38.0005750","sucursales_longitud":"-57.5424980","incremento_pct":"18.48"},{"comercio_razon_social":"COTO CENTRO INTEGRAL DE COMERCIALIZACION S.A.","sucursales_tipo":"Tradicional","sucursales_calle":"Sarmiento","sucursales_nombre":"Mar Del Plata Shopping","sucursales_latitud":"-38.0123890","sucursales_longitud":"-57.5432800","incremento_pct":"16.33"},{"comercio_razon_social":"COTO CENTRO INTEGRAL DE COMERCIALIZACION S.A.","sucursales_tipo":"Tradicional","sucursales_calle":"Catamarca","sucursales_nombre":"Mar Del Plata Vip","sucursales_latitud":"-37.9981925","sucursales_longitud":"-57.5529740","incremento_pct":"11.09"},{"comercio_razon_social":"COTO CENTRO INTEGRAL DE COMERCIALIZACION S.A.","sucursales_tipo":"Hipermercado","sucursales_calle":"Av. Constitución","sucursales_nombre":"Mar del Plata","sucursales_latitud":"-37.953878","sucursales_longitud":"-57.579192","incremento_pct":"16.43"},{"comercio_razon_social":"COTO CENTRO INTEGRAL DE COMERCIALIZACION S.A.","sucursales_tipo":"Supermercado","sucursales_calle":"Rivadavia","sucursales_nombre":"Mar del Plata","sucursales_latitud":"-37.9978080","sucursales_longitud":"-57.5519546","incremento_pct":"13.15"},{"comercio_razon_social":"COTO CENTRO INTEGRAL DE COMERCIALIZACION S.A.","sucursales_tipo":"Supermercado","sucursales_calle":"Catamarca","sucursales_nombre":"Mar del Plata Centro","sucursales_latitud":"-37.998923","sucursales_longitud":"-57.553648","incremento_pct":"15.16"},{"comercio_razon_social":"COTO CENTRO INTEGRAL DE COMERCIALIZACION S.A.","sucursales_tipo":"Supermercado","sucursales_calle":"Fortunato de la Plaza","sucursales_nombre":"Mar del Plata I","sucursales_latitud":"-38.0526","sucursales_longitud":"-57.5610","incremento_pct":"11.09"},{"comercio_razon_social":"COTO CENTRO INTEGRAL DE COMERCIALIZACION S.A.","sucursales_tipo":"Autoservicio","sucursales_calle":"Alberti","sucursales_nombre":"Mar del Plata III","sucursales_latitud":"-38.010516319890584","sucursales_longitud":"-57.545398700432656","incremento_pct":"14.35"},{"comercio_razon_social":"COTO CENTRO INTEGRAL DE COMERCIALIZACION S.A.","sucursales_tipo":"Supermercado","sucursales_calle":"Av. del Libertador","sucursales_nombre":"Martinez (Libertador)","sucursales_latitud":"-34.490270","sucursales_longitud":"-58.484964","incremento_pct":"10.04"},{"comercio_razon_social":"COTO CENTRO INTEGRAL DE COMERCIALIZACION S.A.","sucursales_tipo":"Hipermercado","sucursales_calle":"Av. Pdte. J. D. Perón","sucursales_nombre":"Martín Coronado","sucursales_latitud":"-34.587243","sucursales_longitud":"-58.593697","incremento_pct":"13.33"},{"comercio_razon_social":"COTO CENTRO INTEGRAL DE COMERCIALIZACION S.A.","sucursales_tipo":"Hipermercado","sucursales_calle":"Juan Bautista Alberdi","sucursales_nombre":"Maschwitz","sucursales_latitud":"-34.395347","sucursales_longitud":"-58.738836","incremento_pct":"15.43"},{"comercio_razon_social":"COTO CENTRO INTEGRAL DE COMERCIALIZACION S.A.","sucursales_tipo":"Supermercado","sucursales_calle":"Sarmiento","sucursales_nombre":"Mayor Buratovich","sucursales_latitud":"-39.258333083488765","sucursales_longitud":"-62.613743305555545","incremento_pct":"14.55"},{"comercio_razon_social":"COTO CENTRO INTEGRAL DE COMERCIALIZACION S.A.","sucursales_tipo":"Tradicional","sucursales_calle":"Acceso Este","sucursales_nombre":"Mendoza Shopping","sucursales_latitud":"-32.9033050","sucursales_longitud":"-68.7998620","incremento_pct":"13.98"},{"comercio_razon_social":"COTO CENTRO INTEGRAL DE COMERCIALIZACION S.A.","sucursales_tipo":"Tradicional","sucursales_calle":"Av. San Martin","sucursales_nombre":"Mendoza Vip","sucursales_latitud":"-32.8899844","sucursales_longitud":"-68.8394210","incremento_pct":"13.24"},{"comercio_razon_social":"COTO CENTRO INTEGRAL DE COMERCIALIZACION S.A.","sucursales_tipo":"Supermercado","sucursales_calle":"Avenida 29","sucursales_nombre":"Mercedes.","sucursales_latitud":"-34.6533","sucursales_longitud":"-59.4327","incremento_pct":"11.31"},{"comercio_razon_social":"COTO CENTRO INTEGRAL DE COMERCIALIZACION S.A.","sucursales_tipo":"Hipermercado","sucursales_calle":"Av. Argentina","sucursales_nombre":"Merlo","sucursales_latitud":"-34.679311","sucursales_longitud":"-58.727992","incremento_pct":"15.37"},{"comercio_razon_social":"COTO CENTRO INTEGRAL DE COMERCIALIZACION S.A.","sucursales_tipo":"Tradicional","sucursales_calle":"Del Libertador Gral. San Martin","sucursales_nombre":"Merlo","sucursales_latitud":"-34.6673493","sucursales_longitud":"-58.7265493","incremento_pct":"16.87"},{"comercio_razon_social":"COTO CENTRO INTEGRAL DE COMERCIALIZACION S.A.","sucursales_tipo":"Supermercado","sucursales_calle":"Avenida Del Libertador","sucursales_nombre":"Merlo II.","sucursales_latitud":"-34.6733","sucursales_longitud":"-58.7246","incremento_pct":"15.62"},{"comercio_razon_social":"COTO CENTRO INTEGRAL DE COMERCIALIZACION S.A.","sucursales_tipo":"Hipermercado","sucursales_calle":"Av.Mitre","sucursales_nombre":"Miramar","sucursales_latitud":"-38.2422279","sucursales_longitud":"-57.7947644","incremento_pct":"16.43"},{"comercio_razon_social":"COTO CENTRO INTEGRAL DE COMERCIALIZACION S.A.","sucursales_tipo":"Supermercado","sucursales_calle":"Mitre 549","sucursales_nombre":"Mitre..","sucursales_latitud":"-24.7846","sucursales_longitud":"-65.4099","incremento_pct":"16.15"},{"comercio_razon_social":"COTO CENTRO INTEGRAL DE COMERCIALIZACION S.A.","sucursales_tipo":"Tradicional","sucursales_calle":"Hipolito Yrigoyen","sucursales_nombre":"Monte Grande","sucursales_latitud":"-34.8156163","sucursales_longitud":"-58.4670347","incremento_pct":"16.70"},{"comercio_razon_social":"COTO CENTRO INTEGRAL DE COMERCIALIZACION S.A.","sucursales_tipo":"Supermercado","sucursales_calle":"Patagonia","sucursales_nombre":"Monte Hermoso I","sucursales_latitud":"-38.98795493473555","sucursales_longitud":"-61.28911900537787","incremento_pct":"15.33"},{"comercio_razon_social":"COTO CENTRO INTEGRAL DE COMERCIALIZACION S.A.","sucursales_tipo":"Tradicional","sucursales_calle":"Bartolome Mitre","sucursales_nombre":"Moreno","sucursales_latitud":"-34.6497565","sucursales_longitud":"-58.7877134","incremento_pct":"16.31"},{"comercio_razon_social":"COTO CENTRO INTEGRAL DE COMERCIALIZACION S.A.","sucursales_tipo":"Supermercado","sucursales_calle":"Avenida DEl Libertad","sucursales_nombre":"Moreno I.","sucursales_latitud":"-34.6435","sucursales_longitud":"-58.7905","incremento_pct":"11.27"},{"comercio_razon_social":"COTO CENTRO INTEGRAL DE COMERCIALIZACION S.A.","sucursales_tipo":"Supermercado","sucursales_calle":"AVENIDA RIVADAVIA","sucursales_nombre":"Morón I.","sucursales_latitud":"-34.6488","sucursales_longitud":"-58.6126","incremento_pct":"15.37"},{"comercio_razon_social":"COTO CENTRO INTEGRAL DE COMERCIALIZACION S.A.","sucursales_tipo":"Supermercado","sucursales_calle":"Garcia Silva Intendente","sucursales_nombre":"Morón II.","sucursales_latitud":"-34.6537","sucursales_longitud":"-58.6231","incremento_pct":"16.57"},{"comercio_razon_social":"COTO CENTRO INTEGRAL DE COMERCIALIZACION S.A.","sucursales_tipo":"Supermercado","sucursales_calle":"Rivadavia","sucursales_nombre":"Motobike","sucursales_latitud":"-34.5818437","sucursales_longitud":"-60.9567806","incremento_pct":"16.01"},{"comercio_razon_social":"COTO CENTRO INTEGRAL DE COMERCIALIZACION S.A.","sucursales_tipo":"Supermercado","sucursales_calle":"Av. Nazca","sucursales_nombre":"NAZCA ","sucursales_latitud":"-34.6189821","sucursales_longitud":"-58.4754368","incremento_pct":"14.24"},{"comercio_razon_social":"COTO CENTRO INTEGRAL DE COMERCIALIZACION S.A.","sucursales_tipo":"Supermercado","sucursales_calle":"Av. 59 esq. Calle 38","sucursales_nombre":"NECOCHEA","sucursales_latitud":"-38.5611","sucursales_longitud":"-58.7305","incremento_pct":"14.30"},{"comercio_razon_social":"COTO CENTRO INTEGRAL DE COMERCIALIZACION S.A.","sucursales_tipo":"Hipermercado","sucursales_calle":"Dr Ramon","sucursales_nombre":"NEUQUEN ","sucursales_latitud":"-38.942149918","sucursales_longitud":"-68.06446909","incremento_pct":"14.91"},{"comercio_razon_social":"COTO CENTRO INTEGRAL DE COMERCIALIZACION S.A.","sucursales_tipo":"Tradicional","sucursales_calle":"Juan Julián Lastra","sucursales_nombre":"NEUQUEN SHOPPING","sucursales_latitud":"-38.960712","sucursales_longitud":"-68.1260373","incremento_pct":"11.31"},{"comercio_razon_social":"COTO CENTRO INTEGRAL DE COMERCIALIZACION S.A.","sucursales_tipo":"Hipermercado","sucursales_calle":"Av. Sta María de las Conchas","sucursales_nombre":"NORDELTA                                                    ","sucursales_latitud":"-34.40348","sucursales_longitud":"-58.630557","incremento_pct":"11.79"},{"comercio_razon_social":"COTO CENTRO INTEGRAL DE COMERCIALIZACION S.A.","sucursales_tipo":"Supermercado","sucursales_calle":"Naon Dr. Romulo","sucursales_nombre":"Naón.","sucursales_latitud":"-34.5696","sucursales_longitud":"-58.4730","incremento_pct":"11.58"},{"comercio_razon_social":"COTO CENTRO INTEGRAL DE COMERCIALIZACION S.A.","sucursales_tipo":"Hipermercado","sucursales_calle":"Av. 58","sucursales_nombre":"Necochea","sucursales_latitud":"-38.5609109","sucursales_longitud":"-58.7496625","incremento_pct":"16.87"},{"comercio_razon_social":"COTO CENTRO INTEGRAL DE COMERCIALIZACION S.A.","sucursales_tipo":"Supermercado","sucursales_calle":"Av. 59","sucursales_nombre":"Necochea I","sucursales_latitud":"-38.56530038410667","sucursales_longitud":"-58.72602722949972","incremento_pct":"14.48"},{"comercio_razon_social":"COTO CENTRO INTEGRAL DE COMERCIALIZACION S.A.","sucursales_tipo":"Supermercado","sucursales_calle":"Av. 58","sucursales_nombre":"Necochea II","sucursales_latitud":"-38.55631807854196","sucursales_longitud":"-58.74200582838057","incremento_pct":"14.46"},{"comercio_razon_social":"COTO CENTRO INTEGRAL DE COMERCIALIZACION S.A.","sucursales_tipo":"Tradicional","sucursales_calle":"Dr. Teodoro L. Planas","sucursales_nombre":"Neuquen","sucursales_latitud":"-38.9590960","sucursales_longitud":"-68.0632030","incremento_pct":"13.25"},{"comercio_razon_social":"COTO CENTRO INTEGRAL DE COMERCIALIZACION S.A.","sucursales_tipo":"Autoservicio","sucursales_calle":"Av del trabaj y Dr Ramon","sucursales_nombre":"Neuquen III","sucursales_latitud":"-38.9418903934362","sucursales_longitud":"-68.1155990663683","incremento_pct":"14.86"},{"comercio_razon_social":"COTO CENTRO INTEGRAL DE COMERCIALIZACION S.A.","sucursales_tipo":"Supermercado","sucursales_calle":"Dr. Teodoro Luis Planas","sucursales_nombre":"Neuquén","sucursales_latitud":"-38.9592294","sucursales_longitud":"-68.0622932","incremento_pct":"18.06"},{"comercio_razon_social":"COTO CENTRO INTEGRAL DE COMERCIALIZACION S.A.","sucursales_tipo":"Hipermercado","sucursales_calle":"Antártida Argentina","sucursales_nombre":"Neuquén Antártida Argentina","sucursales_latitud":"-38.946820","sucursales_longitud":"-68.110433","incremento_pct":"18.06"},{"comercio_razon_social":"COTO CENTRO INTEGRAL DE COMERCIALIZACION S.A.","sucursales_tipo":"Supermercado","sucursales_calle":"Piquen","sucursales_nombre":"Neuquén I","sucursales_latitud":"-38.925717604141624","sucursales_longitud":"-68.08393585612066","incremento_pct":"11.75"},{"comercio_razon_social":"COTO CENTRO INTEGRAL DE COMERCIALIZACION S.A.","sucursales_tipo":"Autoservicio","sucursales_calle":"Galarza","sucursales_nombre":"Neuquén II","sucursales_latitud":"-38.9478559","sucursales_longitud":"-68.1193394","incremento_pct":"13.41"},{"comercio_razon_social":"COTO CENTRO INTEGRAL DE COMERCIALIZACION S.A.","sucursales_tipo":"Autoservicio","sucursales_calle":"AV. LIBERTADOR","sucursales_nombre":"OLIVOS","sucursales_latitud":"-34.50855","sucursales_longitud":"-58.47972","incremento_pct":"13.98"},{"comercio_razon_social":"COTO CENTRO INTEGRAL DE COMERCIALIZACION S.A.","sucursales_tipo":"Supermercado","sucursales_calle":"Av. Rivadavia","sucursales_nombre":"ONCE ","sucursales_latitud":"-34.6101883","sucursales_longitud":"-58.406752","incremento_pct":"15.54"},{"comercio_razon_social":"COTO CENTRO INTEGRAL DE COMERCIALIZACION S.A.","sucursales_tipo":"Tienda Fisica","sucursales_calle":"SANTA FE","sucursales_nombre":"Oberá","sucursales_latitud":"-27.486057","sucursales_longitud":"-55.120977","incremento_pct":"9.06"},{"comercio_razon_social":"COTO CENTRO INTEGRAL DE COMERCIALIZACION S.A.","sucursales_tipo":"Supermercado","sucursales_calle":"Necochea","sucursales_nombre":"Olavarria II","sucursales_latitud":"-36.89442050512447","sucursales_longitud":"-60.316321134632744","incremento_pct":"18.48"},{"comercio_razon_social":"COTO CENTRO INTEGRAL DE COMERCIALIZACION S.A.","sucursales_tipo":"Supermercado","sucursales_calle":"Rivadavia","sucursales_nombre":"Olavarria III","sucursales_latitud":"-36.90082972971168","sucursales_longitud":"-60.33149707323901","incremento_pct":"15.48"},{"comercio_razon_social":"COTO CENTRO INTEGRAL DE COMERCIALIZACION S.A.","sucursales_tipo":"Tradicional","sucursales_calle":"Valentin Gomez","sucursales_nombre":"Once (Ciudad)","sucursales_latitud":"-34.6055240","sucursales_longitud":"-58.4058611","incremento_pct":"17.04"},{"comercio_razon_social":"COTO CENTRO INTEGRAL DE COMERCIALIZACION S.A.","sucursales_tipo":"Supermercado","sucursales_calle":"Paraguay","sucursales_nombre":"PARAGUAY ","sucursales_latitud":"-34.5970815","sucursales_longitud":"-58.4064955","incremento_pct":"15.37"},{"comercio_razon_social":"COTO CENTRO INTEGRAL DE COMERCIALIZACION S.A.","sucursales_tipo":"Hipermercado","sucursales_calle":"Coronel Juan M. Piran ","sucursales_nombre":"PARANA ","sucursales_latitud":"-31.7419371","sucursales_longitud":"-60.5387651","incremento_pct":"12.31"},{"comercio_razon_social":"COTO CENTRO INTEGRAL DE COMERCIALIZACION S.A.","sucursales_tipo":"Tradicional","sucursales_calle":"AV F.FERNANDEZ DE LA CRUZ","sucursales_nombre":"PARQUE BROWN","sucursales_latitud":"-34.675453","sucursales_longitud":"-58.5912299","incremento_pct":"12.36"},{"comercio_razon_social":"COTO CENTRO INTEGRAL DE COMERCIALIZACION S.A.","sucursales_tipo":"Supermercado","sucursales_calle":"Pedro Goyena","sucursales_nombre":"PEDRO GOYENA ","sucursales_latitud":"-34.6259327","sucursales_longitud":"-58.4355294","incremento_pct":"14.79"},{"comercio_razon_social":"COTO CENTRO INTEGRAL DE COMERCIALIZACION S.A.","sucursales_tipo":"Supermercado","sucursales_calle":"RIVAROLA","sucursales_nombre":"PEHUAJO","sucursales_latitud":"-35.813650","sucursales_longitud":"-61.898210","incremento_pct":"14.35"},{"comercio_razon_social":"COTO CENTRO INTEGRAL DE COMERCIALIZACION S.A.","sucursales_tipo":"Hipermercado","sucursales_calle":"México","sucursales_nombre":"PICHINCHA ","sucursales_latitud":"-34.6162451","sucursales_longitud":"-58.3982386","incremento_pct":"13.15"},{"comercio_razon_social":"COTO CENTRO INTEGRAL DE COMERCIALIZACION S.A.","sucursales_tipo":"Supermercado","sucursales_calle":"20 DE NOVIEMBRE","sucursales_nombre":"PICO TRUNCADO 2","sucursales_latitud":"-46.801910","sucursales_longitud":"-67.946550","incremento_pct":"20.13"},{"comercio_razon_social":"COTO CENTRO INTEGRAL DE COMERCIALIZACION S.A.","sucursales_tipo":"Supermercado","sucursales_calle":"AV. 21 DE NOVIEMBRE","sucursales_nombre":"PIEDRA BUENA","sucursales_latitud":"-49.986650","sucursales_longitud":"-68.924830","incremento_pct":"10.58"},{"comercio_razon_social":"COTO CENTRO INTEGRAL DE COMERCIALIZACION S.A.","sucursales_tipo":"Hipermercado","sucursales_calle":"San Martin","sucursales_nombre":"PILAR","sucursales_latitud":"-34.4578667","sucursales_longitud":"-58.9170179","incremento_pct":"17.75"},{"comercio_razon_social":"COTO CENTRO INTEGRAL DE COMERCIALIZACION S.A.","sucursales_tipo":"Tradicional","sucursales_calle":"Panamericana Km 50, La Lonja, Provincia de Buenos Aires","sucursales_nombre":"PILAR SHOPING","sucursales_latitud":"-34.4470634","sucursales_longitud":"-59.1319968","incremento_pct":"16.01"},{"comercio_razon_social":"COTO CENTRO INTEGRAL DE COMERCIALIZACION S.A.","sucursales_tipo":"Supermercado","sucursales_calle":"CACIQUE NAHUELPAN","sucursales_nombre":"PLAYA UNION","sucursales_latitud":"-43.318810","sucursales_longitud":"-65.049490","incremento_pct":"14.22"},{"comercio_razon_social":"COTO CENTRO INTEGRAL DE COMERCIALIZACION S.A.","sucursales_tipo":"Supermercado","sucursales_calle":"SAN MARTIN","sucursales_nombre":"PLOTTIER","sucursales_latitud":"-38.947920","sucursales_longitud":"-68.225790","incremento_pct":"11.79"},{"comercio_razon_social":"COTO CENTRO INTEGRAL DE COMERCIALIZACION S.A.","sucursales_tipo":"Hipermercado","sucursales_calle":"Av. Francisco Rabanal","sucursales_nombre":"POMPEYA ","sucursales_latitud":"-34.654144","sucursales_longitud":"-58.4196788","incremento_pct":"14.22"},{"comercio_razon_social":"COTO CENTRO INTEGRAL DE COMERCIALIZACION S.A.","sucursales_tipo":"Tradicional","sucursales_calle":"Av. Sáenz","sucursales_nombre":"POMPEYA VIP","sucursales_latitud":"-34.6518499","sucursales_longitud":"-58.4198749","incremento_pct":"16.92"},{"comercio_razon_social":"COTO CENTRO INTEGRAL DE COMERCIALIZACION S.A.","sucursales_tipo":"Tradicional","sucursales_calle":"Vedia ","sucursales_nombre":"PTE SAAVEDRA","sucursales_latitud":"-34.5468452","sucursales_longitud":"-58.605788","incremento_pct":"17.59"},{"comercio_razon_social":"COTO CENTRO INTEGRAL DE COMERCIALIZACION S.A.","sucursales_tipo":"Supermercado","sucursales_calle":"PERITO MORENO","sucursales_nombre":"PUERTO DESEADO","sucursales_latitud":"-47.743490","sucursales_longitud":"-65.886990","incremento_pct":"13.21"},{"comercio_razon_social":"COTO CENTRO INTEGRAL DE COMERCIALIZACION S.A.","sucursales_tipo":"Supermercado","sucursales_calle":"CHUBUT","sucursales_nombre":"PUERTO MADRYN 3","sucursales_latitud":"-42.780870","sucursales_longitud":"-65.037070","incremento_pct":"14.24"},{"comercio_razon_social":"COTO CENTRO INTEGRAL DE COMERCIALIZACION S.A.","sucursales_tipo":"Hipermercado","sucursales_calle":" Av. del Libertador","sucursales_nombre":"PUNTA CHICA ","sucursales_latitud":"-34.4524395","sucursales_longitud":"-58.527515","incremento_pct":"12.09"},{"comercio_razon_social":"COTO CENTRO INTEGRAL DE COMERCIALIZACION S.A.","sucursales_tipo":"Tradicional","sucursales_calle":"H. Yrigoyen","sucursales_nombre":"Pacheco","sucursales_latitud":"-34.4581520","sucursales_longitud":"-58.6304584","incremento_pct":"14.35"},{"comercio_razon_social":"COTO CENTRO INTEGRAL DE COMERCIALIZACION S.A.","sucursales_tipo":"Tradicional","sucursales_calle":"Av. Santa Fe","sucursales_nombre":"Palermo","sucursales_latitud":"-34.5892294","sucursales_longitud":"-58.4098360","incremento_pct":"14.16"},{"comercio_razon_social":"COTO CENTRO INTEGRAL DE COMERCIALIZACION S.A.","sucursales_tipo":"Supermercado","sucursales_calle":"Av. Raúl Scalabrini Ortíz","sucursales_nombre":"Palermo Canning","sucursales_latitud":"-34.580520","sucursales_longitud":"-58.410332","incremento_pct":"9.65"},{"comercio_razon_social":"COTO CENTRO INTEGRAL DE COMERCIALIZACION S.A.","sucursales_tipo":"Tradicional","sucursales_calle":"Parana","sucursales_nombre":"Panamericana (Colectora)","sucursales_latitud":"-34.5102228","sucursales_longitud":"-58.5249723","incremento_pct":"11.58"},{"comercio_razon_social":"COTO CENTRO INTEGRAL DE COMERCIALIZACION S.A.","sucursales_tipo":"Tradicional","sucursales_calle":"Carlos Pellegrini","sucursales_nombre":"Parana","sucursales_latitud":"-31.7336701","sucursales_longitud":"-60.5324146","incremento_pct":"15.37"},